Concept,Label,@en,@de,@it,@fr,@hu,@ca,@ru,@es,@el-latn,Lat,Long
<http://vocab.getty.edu/tgn/1005645>,Spandau,,,,,,,,,,52.55,13.2
<http://vocab.getty.edu/tgn/1000462>,Uppsala,,,,,,,,,,60,17.75
<http://vocab.getty.edu/tgn/1003666>,Wirral,"""Wirral""@en",,,,,,,,,53.3333,-3.0833
<http://vocab.getty.edu/tgn/1000074>,Ellás,"""Greece""@en","""Griechenland""@de","""Grecia""@it","""Grèce""@fr",,,"""Греция""@ru","""Grecia""@es","""Ellás""@el-latn",39,22
<http://vocab.getty.edu/tgn/1000376>,Galaţi,,,,,,,,,,45.75,27.75
<http://vocab.getty.edu/tgn/1000095>,España,"""Spain""@en","""Spanien""@de",,"""Espagne""@fr",,,"""Испания""@ru","""España""@es",,40,-4
<http://vocab.getty.edu/tgn/1003489>,Potenza,,,,,,,,,,40.583333,15.733333
<http://vocab.getty.edu/tgn/1000088>,Norge,"""Norway""@en","""Norwegen""@de","""Norvegia""@it","""Norvège""@fr",,,"""Норвегия""@ru","""Noruega""@es",,62,10
<http://vocab.getty.edu/tgn/1000097>,Sverige,"""Sweden""@en","""Schweden""@de","""Svezia""@it","""Suède""@fr",,,"""Швеция""@ru","""Suecia""@es",,62,15
<http://vocab.getty.edu/tgn/1000466>,Västernorrland,,,,,,,,,,63,17.5
<http://vocab.getty.edu/tgn/1001052>,İstanbul,,,,,,,,,,41.166667,28.75
<http://vocab.getty.edu/tgn/1000394>,București,,,,,,,,,,44.5,26.0833
<http://vocab.getty.edu/tgn/1003428>,Alessandria,,,,,,,,,,44.816667,8.7
<http://vocab.getty.edu/tgn/1003396>,Odes'ka Oblast',,,,,,,,,,47,30
<http://vocab.getty.edu/tgn/1000336>,Alba,,,,,,,,,,46.1667,23.5833
<http://vocab.getty.edu/tgn/1000063>,België,"""Belgium""@en","""Belgien""@de","""Belgio""@it","""Belgique""@fr",,,"""Бельгия""@ru","""Bélgica""@es",,50.8333,4
<http://vocab.getty.edu/tgn/1003182>,Koblenz,,,,,,,,,,50.1667,7.25
<http://vocab.getty.edu/tgn/1025375>,Absam,,,,,,,,,,47.3,11.5
<http://vocab.getty.edu/tgn/1003430>,Aosta,,,,,,,,,,45.766667,7.416667
<http://vocab.getty.edu/tgn/1003361>,Kharkivs'ka Oblast',,,,,,,,,,49.5,36.5
<http://vocab.getty.edu/tgn/1005279>,Orpington,"""Orpington""@en",,,,,,,,,51.3833,0.0833
<http://vocab.getty.edu/tgn/1025430>,Bad-Hall,,,,,,,,,,48.05,14.2167
<http://vocab.getty.edu/tgn/1003407>,Samarskaya Oblast’,,,,,,,"""Samara""@ru-latn",,,53,50
<http://vocab.getty.edu/tgn/1000062>,Österreich,"""Austria""@en","""Österreich""@de",,"""Autriche""@fr",,,"""Австрия""@ru","""Austria""@es",,47.3333,13.3333
<http://vocab.getty.edu/tgn/1000078>,Ireland,"""Ireland""@en","""Irland""@de",,"""Irlande""@fr",,,"""Ирландия""@ru","""Irlanda""@es",,53,-8
<http://vocab.getty.edu/tgn/1000066>,Danmark,"""Denmark""@en","""Dänemark""@de","""Danimarca""@it","""Danemark""@fr",,,"""Дания""@ru","""Dinamarca""@es",,56,10
<http://vocab.getty.edu/tgn/1004692>,Hook,"""Hook""@en",,,,,,,,,51.3667,-0.3
<http://vocab.getty.edu/tgn/1005309>,Pankow,,,,,,,,,,52.5667,13.4
<http://vocab.getty.edu/tgn/1001732>,Palermo,,,,,,,,,,37.816667,13.583333
<http://vocab.getty.edu/tgn/1000091>,România,"""Romania""@en","""Rumänien""@de",,"""Roumanie""@fr",,,"""Румыния""@ru","""Rumania""@es",,46,25
<http://vocab.getty.edu/tgn/1003314>,Krasnoyarskiy Kray,,,,,,,,,,58,93
<http://vocab.getty.edu/tgn/1005422>,Reinickendorf,,,,,,,,,,52.5833,13.3333
<http://vocab.getty.edu/tgn/1000443>,Sibiu,,,,,,,,,,45.9167,24.25
<http://vocab.getty.edu/tgn/1003611>,Kirklees,"""Kirklees""@en",,,,,,,,,53.5833,-1.8333
<http://vocab.getty.edu/tgn/1004847>,Kensington and Chelsea,"""Kensington and Chelsea""@en",,,,,,,,,51.45,-0.1833
<http://vocab.getty.edu/tgn/1003614>,Liverpool,"""Liverpool""@en",,,,,,,,,53.4167,-3
<http://vocab.getty.edu/tgn/1003460>,Grosseto,,,,,,,,,,42.833333,11.25
<http://vocab.getty.edu/tgn/1003429>,Ancona,,,,,,,,,,43.55,13.166667
<http://vocab.getty.edu/tgn/1003432>,Ascoli Piceno,,,,,,,,,,43.016667,13.566667
<http://vocab.getty.edu/tgn/1003459>,Gorizia,,,,,,,,,,45.916667,13.5
<http://vocab.getty.edu/tgn/1000374>,Gävleborg,,,,,,,,,,61.5,16.25
<http://vocab.getty.edu/tgn/1025423>,Bürs,,,,,,,,,,47.15,9.8167
<http://vocab.getty.edu/tgn/1001647>,Castilla-La Mancha,,,,,,,,,,39.5,-3
<http://vocab.getty.edu/tgn/1000882>,Lisboa,,,,,,,,,,39,-9.133333
<http://vocab.getty.edu/tgn/1003505>,Trieste,,,,,,,,,,45.333333,13.416667
<http://vocab.getty.edu/tgn/1003510>,Vercelli,,,,,,,,,,45.616667,8.166667
<http://vocab.getty.edu/tgn/1000403>,Dalarna,,,,,,,,,,61,14.5
<http://vocab.getty.edu/tgn/1003398>,Orenburgskaya Oblast',,,,,,,"""Orenburgskaya Oblast'""@ru-latn",,,52,56
<http://vocab.getty.edu/tgn/1004968>,Lichtenberg,,,,,,,,,,52.5167,13.4833
<http://vocab.getty.edu/tgn/1003397>,Orlovskaya Oblast’,"""Orel""@en",,,,,,"""Oryol""@ru-latn",,,53,36.416
<http://vocab.getty.edu/tgn/1003473>,Massa-Carrara,,,,,,,,,,44.25,10.05
<http://vocab.getty.edu/tgn/1005382>,Purley,"""Purley""@en",,,,,,,,,51.3333,-0.1167
<http://vocab.getty.edu/tgn/1001622>,Agrigento,,,,,,,,,,37.45,13.5
<http://vocab.getty.edu/tgn/1000216>,Polynésie française,"""French Polynesia""@en",,,,,,,,,-15,-140
<http://vocab.getty.edu/tgn/1004664>,Hillegersberg,,,,,,,,,,51.9667,4.5167
<http://vocab.getty.edu/tgn/1003373>,Irkutskaya Oblast',,,,,,,,,,56,106
<http://vocab.getty.edu/tgn/1003408>,Saratovskaya Oblast',,,,,,,"""Saratov""@ru-latn",,,51.5,47
<http://vocab.getty.edu/tgn/1003600>,Halton,"""Halton""@en",,,,,,,,,53.3333,-2.7
<http://vocab.getty.edu/tgn/1000344>,Bihor,,,,,,,,,,47,22.3333
<http://vocab.getty.edu/tgn/1005101>,Mitte,,,,,,,,,,52.55,13.3667
<http://vocab.getty.edu/tgn/1000440>,Sør-Trøndelag,,,,,,,,,,63,10.6667
<http://vocab.getty.edu/tgn/1003573>,Calderdale,"""Calderdale""@en",,,,,,,,,53.75,-2
<http://vocab.getty.edu/tgn/1000184>,Réunion,"""Reunion""@en",,,,,,,,,-21.1,55.6
<http://vocab.getty.edu/tgn/1025397>,Amstetten,,,,,,,,,,48.1333,14.8667
<http://vocab.getty.edu/tgn/1003450>,Cosenza,,,,,,,,,,39.466667,16.416667
<http://vocab.getty.edu/tgn/1003447>,Catanzaro,,,,,,,,,,38.9,16.6
<http://vocab.getty.edu/tgn/1003405>,Rostovskaya Oblast’,,,,,,,"""Rostov""@ru-latn",,,47.440322,41.080829
<http://vocab.getty.edu/tgn/1000090>,Portugal,"""Portugal""@en",,,"""Portugal""@fr",,,"""Португалия""@ru","""Portugal""@es",,39.5,-8
<http://vocab.getty.edu/tgn/1025426>,Bad Aussee,,,,,,,,,,47.6167,13.7833
<http://vocab.getty.edu/tgn/1003566>,Bolton,"""Bolton""@en",,,,,,,,,53.5833,-2.4167
<http://vocab.getty.edu/tgn/1025432>,Bad Ischl,,,,,,,,,,47.7167,13.6333
<http://vocab.getty.edu/tgn/1005180>,Neukölln,,,,,,,,,,52.483333,13.45
<http://vocab.getty.edu/tgn/1001762>,Trapani,,,,,,,,,,37.833333,12.666667
<http://vocab.getty.edu/tgn/1003508>,Varese,,,,,,,,,,45.8,8.8
<http://vocab.getty.edu/tgn/1003468>,Lecce,,,,,,,,,,40.216667,18.166667
<http://vocab.getty.edu/tgn/1003523>,Jihomoravský Kraj,,,,,,,,,,49.1667,16.583
<http://vocab.getty.edu/tgn/1003506>,Udine,,,,,,,,,,46.166667,13
<http://vocab.getty.edu/tgn/1003530>,Středočeský Kraj,"""Středočeský""@en",,,,,,,,,50.083,14.4167
<http://vocab.getty.edu/tgn/1003656>,Trafford,"""Trafford""@en",,,,,,,,,53.4,-2.35
<http://vocab.getty.edu/tgn/1005654>,Stadlau,,,,,,,,,,48.2333,16.4667
<http://vocab.getty.edu/tgn/1001651>,Catania,,,,,,,,,,37.383333,14.666667
<http://vocab.getty.edu/tgn/1001641>,Cagliari,,,,,,,,,,39.5,8.75
<http://vocab.getty.edu/tgn/1000396>,Jönköping,,,,,,,,,,57.5,14.5
<http://vocab.getty.edu/tgn/1000351>,Brașov,,,,,,,,,,45.75,25.3333
<http://vocab.getty.edu/tgn/1000070>,France,"""France""@en","""Frankreich""@de","""Francia""@it","""France""@fr",,,"""Франция""@ru","""Francia""@es",,46,2
<http://vocab.getty.edu/tgn/1001439>,Murcia,,,,,,,,,,37.9167,-1.5
<http://vocab.getty.edu/tgn/1025441>,Badgastein,,,,,,,,,,47.1167,13.15
<http://vocab.getty.edu/tgn/1003381>,"Krym, Avtonomna Respublika",,,,,,,,,,45,34
<http://vocab.getty.edu/tgn/1001780>,Česko,"""Czech Republic""@en",,,"""République tchèque""@fr",,,"""Чешская Республика""@ru","""República Checa""@es",,49.75,15
<http://vocab.getty.edu/tgn/1025438>,Bad Vöslau,,,,,,,,,,47.9667,16.2333
<http://vocab.getty.edu/tgn/1016610>,Pointe-à-Pitre,,,,,,,,,,16.2333,-61.5333
<http://vocab.getty.edu/tgn/1000102>,Srbija-Crna Gora,"""Serbia and Montenegro""@en","""Serbien und Montenegro""@de",,"""Serbie-et-Monténégro""@fr",,,,"""Serbia y Montenegro""@es",,44,21
<http://vocab.getty.edu/tgn/1000069>,Suomi,"""Finland""@en",,,"""Finlande""@fr",,,"""Финляндия""@ru","""Finlandia""@es",,64,26
<http://vocab.getty.edu/tgn/1003640>,Salford,"""Salford""@en",,,,,,,,,53.5,-2.2667
<http://vocab.getty.edu/tgn/1001643>,Caltanissetta,,,,,,,,,,37.4,14.166667
<http://vocab.getty.edu/tgn/1001753>,Siracusa,,,,,,,,,,37.05,15
<http://vocab.getty.edu/tgn/1003478>,Novara,,,,,,,,,,45.966667,8.4
<http://vocab.getty.edu/tgn/1003483>,Pesaro e Urbino,,,,,,,,,,43.666667,12.633333
<http://vocab.getty.edu/tgn/1003440>,Bolzano,,,,,,,,,,46.716667,11.5
<http://vocab.getty.edu/tgn/1000080>,Italia,"""Italy""@en","""Italien""@de","""Italia""@it","""Italie""@fr",,,"""Италия""@ru","""Italia""@es",,42.8333,12.8333
<http://vocab.getty.edu/tgn/1063676>,Strömstad,,,,,,,,,,58.9333,11.1833
<http://vocab.getty.edu/tgn/1046476>,San Cataldo,,,,,,,,,,37.483333,13.983333
<http://vocab.getty.edu/tgn/1049533>,Tczew,,,,,,,,,,54.0833,18.7667
<http://vocab.getty.edu/tgn/1047597>,Aardenburg,,,,,,,,,,51.283333,3.45
<http://vocab.getty.edu/tgn/1062213>,Marbella,,,,,,,,,,36.516667,-4.883333
<http://vocab.getty.edu/tgn/1063301>,Lidingö,,,,,,,,,,59.3667,18.1667
<http://vocab.getty.edu/tgn/1063143>,Hudiksvall,,,,,,,,,,61.75,17.1667
<http://vocab.getty.edu/tgn/1051248>,Chelyabinsk,,,,,,,,,,55.2,61.4167
<http://vocab.getty.edu/tgn/1059674>,Spitak,"""Spitak""@en",,,,,,,,,40.837,44.271
<http://vocab.getty.edu/tgn/1046831>,Segrate,,,,,,,,,,45.483333,9.283333
<http://vocab.getty.edu/tgn/1063688>,Sundsvall,,,,,,,,,,62.3667,17.3333
<http://vocab.getty.edu/tgn/1047683>,Brunssum,,,,,,,,,,50.95,5.966667
<http://vocab.getty.edu/tgn/1049401>,Racibórz,,,,,,,,,,50.0833,18.1667
<http://vocab.getty.edu/tgn/1058004>,Orel,,,,,,,,,,52.9667,36.0667
<http://vocab.getty.edu/tgn/1058952>,Rodionovo-Nesvetayskaya,,,,,,,,,,47.6,39.7
<http://vocab.getty.edu/tgn/1047706>,De Lier,,,,,,,,,,51.966667,4.266667
<http://vocab.getty.edu/tgn/1058042>,Orsk,,,,,,,,,,51.2167,58.5833
<http://vocab.getty.edu/tgn/1050641>,East Kilbride,"""East Kilbride""@en",,,,,,,,,55.766667,-4.166667
<http://vocab.getty.edu/tgn/1046276>,Riccione,,,,,,,,,,43.983333,12.65
<http://vocab.getty.edu/tgn/1047851>,Hoek van Holland,,,,,,,,,,51.983333,4.133333
<http://vocab.getty.edu/tgn/1048536>,Finse,,,,,,,,,,60.6,7.5
<http://vocab.getty.edu/tgn/1063872>,Aadorf,,"""Aadorf""@de",,,,,,,,47.49397,8.89777
<http://vocab.getty.edu/tgn/1047536>,Schaan,,,,,,,,,,47.1667,9.5167
<http://vocab.getty.edu/tgn/1048868>,Żukowo,,,,,,,,,,54.35,18.3667
<http://vocab.getty.edu/tgn/1063627>,Sollentuna,,,,,,,,,,59.4333,17.9333
<http://vocab.getty.edu/tgn/1056987>,Mtskheta,,,,,,,,,,41.845139,44.718751
<http://vocab.getty.edu/tgn/1047109>,Tirano,,,,,,,,,,46.216667,10.166667
<http://vocab.getty.edu/tgn/1062423>,Sóller,,,,,,,,,,39.766667,2.7
<http://vocab.getty.edu/tgn/1048373>,Kilkeel,"""Kilkeel""@en",,,,,,,,,54.066667,-6.016667
<http://vocab.getty.edu/tgn/1049816>,Maia,,,,,,,,,,41.235,-8.62
<http://vocab.getty.edu/tgn/1049105>,Jelenia Góra,,,,,,,,,,50.9167,15.75
<http://vocab.getty.edu/tgn/1048663>,Molde,,,,,,,,,,62.7333,7.1333
<http://vocab.getty.edu/tgn/1048652>,Lysaker,,,,,,,,,,59.9,10.6
<http://vocab.getty.edu/tgn/1062696>,Örnsköldsvik,,,,,,,,,,63.3167,18.75
<http://vocab.getty.edu/tgn/1047438>,Villadeati,,,,,,,,,,45.0667,8.1667
<http://vocab.getty.edu/tgn/1048031>,Oud-Loosdrecht,,,,,,,,,,52.2,5.083333
<http://vocab.getty.edu/tgn/1049289>,Nowa Ruda,,,,,,,,,,50.5667,16.5
<http://vocab.getty.edu/tgn/1047969>,Nagele,,,,,,,,,,52.65,5.733333
<http://vocab.getty.edu/tgn/1049215>,Lubań,,,,,,,,,,51.1167,15.2833
<http://vocab.getty.edu/tgn/1059871>,Stryy,,,,,,,,,,49.2667,23.85
<http://vocab.getty.edu/tgn/1063119>,Hedemora,,,,,,,,,,60.2167,16
<http://vocab.getty.edu/tgn/1047594>,Aalsmeer,,,,,,,,,,52.266667,4.766667
<http://vocab.getty.edu/tgn/1049355>,Piaseczno,,,,,,,,,,52.05,21
<http://vocab.getty.edu/tgn/1063260>,Kungsbacka,,,,,,,,,,57.5,12.0833
<http://vocab.getty.edu/tgn/1047629>,Baarn,,,,,,,,,,52.216667,5.283333
<http://vocab.getty.edu/tgn/1047614>,Amstelveen,,,,,,,,,,52.3,4.866667
<http://vocab.getty.edu/tgn/1048549>,Geiranger,,,,,,,,,,62.1,7.2167
<http://vocab.getty.edu/tgn/1050002>,Aiud,,,,,,,,,,46.3167,23.7167
<http://vocab.getty.edu/tgn/1050576>,Cumbernauld,"""Cumbernauld""@en",,,,,,,,,55.95,-3.983333
<http://vocab.getty.edu/tgn/1049545>,Trzebiatów,,,,,,,,,,54.05,15.25
<http://vocab.getty.edu/tgn/1058024>,Orekhovo-Zuyevo,,,,,,,,,,55.7833,39
<http://vocab.getty.edu/tgn/1050528>,Clydebank,"""Clydebank""@en",,,,,,,,,55.9,-4.4
<http://vocab.getty.edu/tgn/1062782>,Arvika,,,,,,,,,,59.6833,12.6333
<http://vocab.getty.edu/tgn/1049474>,Sopot,,,,,,,,,,54.45,18.5167
<http://vocab.getty.edu/tgn/1048937>,Bogatynia,,,,,,,,,,50.4167,14.95
<http://vocab.getty.edu/tgn/1049176>,Krapkowice,,,,,,,,,,50.4833,17.9333
<http://vocab.getty.edu/tgn/1046891>,Sestriere,,,,,,,,,,44.95,6.883333
<http://vocab.getty.edu/tgn/1062363>,Potes,,,,,,,,,,43.15,-4.616667
<http://vocab.getty.edu/tgn/1058463>,Pochinok,,,,,,,,,,54.4,32.4667
<http://vocab.getty.edu/tgn/1047532>,Balzers,,,,,,,,,,47.0667,9.5333
<http://vocab.getty.edu/tgn/1062956>,Farsta,,,,,,,,,,59.25,18.0833
<http://vocab.getty.edu/tgn/1048924>,Bielawa,,,,,,,,,,50.6833,16.6167
<http://vocab.getty.edu/tgn/1062156>,Las Rozas de Madrid,,,,,,,,,,40.483333,-3.866667
<http://vocab.getty.edu/tgn/1048309>,Banbridge,"""Banbridge""@en",,,,,,,,,54.35,-6.283333
<http://vocab.getty.edu/tgn/1062569>,Torrevieja,,,,,,,,,,37.983333,-0.683333
<http://vocab.getty.edu/tgn/1047398>,Vico Equense,,,,,,,,,,40.666667,14.416667
<http://vocab.getty.edu/tgn/1049047>,Gdynia,,,,,,,,,,54.5167,18.5
<http://vocab.getty.edu/tgn/1047719>,Diemen,,,,,,,,,,52.333333,4.966667
<http://vocab.getty.edu/tgn/1047537>,Triesen,,,,,,,,,,47.1167,9.5333
<http://vocab.getty.edu/tgn/1063415>,Nacka,,,,,,,,,,59.3,18.1667
<http://vocab.getty.edu/tgn/1055388>,Klimovichi,,,,,,,,,,53.6,31.9667
<http://vocab.getty.edu/tgn/1063560>,Saltsjöbaden,,,,,,,,,,59.25,18.3333
<http://vocab.getty.edu/tgn/1063876>,Aarwangen,,,,,,,,,,47.238533,7.770042
<http://vocab.getty.edu/tgn/1050277>,Sinaia,,,,,,,,,,45.3333,25.55
<http://vocab.getty.edu/tgn/1050135>,Galaţi,,,,,,,,,,45.45,28.0333
<http://vocab.getty.edu/tgn/1047468>,Villasimius,,,,,,,,,,39.143056,9.518611
<http://vocab.getty.edu/tgn/1063877>,Acquarossa,,,"""Acquarossa""@it",,,,,,,46.454725,8.942607
<http://vocab.getty.edu/tgn/1062299>,Nules,,,,,,,,,,39.85,-0.15
<http://vocab.getty.edu/tgn/1050766>,Irvine,"""Irvine""@en",,,,,,,,,55.6,-4.666667
<http://vocab.getty.edu/tgn/1047690>,Bussum,,,,,,,,,,52.283333,5.2
<http://vocab.getty.edu/tgn/1050874>,Livingston,"""Livingston""@en",,,,,,,,,55.883333,-3.533333
<http://vocab.getty.edu/tgn/1048068>,Rockanje,,,,,,,,,,51.866667,4.066667
<http://vocab.getty.edu/tgn/1063049>,Gustavsberg,,,,,,,,,,59.3167,18.3833
<http://vocab.getty.edu/tgn/1047605>,Alblasserdam,,,,,,,,,,51.866667,4.666667
<http://vocab.getty.edu/tgn/1048816>,Ustaoset,,,,,,,,,,60.5,8.0333
<http://vocab.getty.edu/tgn/1046974>,Spadafora,,,,,,,,,,38.216667,15.366667
<http://vocab.getty.edu/tgn/1047280>,Valenza,,,,,,,,,,45.016667,8.633333
<http://vocab.getty.edu/tgn/1063874>,Aarberg,,,,,,,,,,47.043835,7.27357
<http://vocab.getty.edu/tgn/1054146>,Gradizhsk,,,,,,,,,,49.2167,33.1167
<http://vocab.getty.edu/tgn/1049201>,Leśna,,,,,,,,,,51.0167,15.2667
<http://vocab.getty.edu/tgn/1049039>,Głogów Małopolski,,,,,,,,,,50.15,21.9667
<http://vocab.getty.edu/tgn/1049026>,Dzierżoniów,,,,,,,,,,50.7167,16.6667
<http://vocab.getty.edu/tgn/1047566>,Mondorf-les-Bains,,,,,,,,,,49.5,6.2667
<http://vocab.getty.edu/tgn/1047702>,De Bilt,,,,,,,,,,52.116667,5.183333
<http://vocab.getty.edu/tgn/1050967>,North Queensferry,"""North Queensferry""@en",,,,,,,,,56,-3.4
<http://vocab.getty.edu/tgn/1049130>,Kamienna Góra,,,,,,,,,,50.8,16
<http://vocab.getty.edu/tgn/1049821>,Matosinhos,,,,,,,,,,41.181,-8.689
<http://vocab.getty.edu/tgn/1049304>,Nysa,,,,,,,,,,50.5,17.3333
<http://vocab.getty.edu/tgn/1049284>,Nidzica,,,,,,,,,,53.3667,20.45
<http://vocab.getty.edu/tgn/1048855>,Świecie,,,,,,,,,,53.4167,18.4167
<http://vocab.getty.edu/tgn/1025444>,Berndorf,,,,,,,,,,47.9667,16.1333
<http://vocab.getty.edu/tgn/1031304>,Hyvinkää,,,,,,,,,,60.6167,24.8333
<http://vocab.getty.edu/tgn/1027507>,Rudolfov,,,,,,,,,,48.9833,14.5333
<http://vocab.getty.edu/tgn/1027344>,Litvínov,,,,,,,,,,50.6167,13.6
<http://vocab.getty.edu/tgn/1025990>,Rauris,,,,,,,,,,47.2333,13
<http://vocab.getty.edu/tgn/1028579>,Bowdon,"""Bowdon""@en",,,,,,,,,53.366667,-2.366667
<http://vocab.getty.edu/tgn/1025751>,Längenfeld,,,,,,,,,,47.0833,10.9667
<http://vocab.getty.edu/tgn/1025644>,Hard,,,,,,,,,,47.4833,9.7
<http://vocab.getty.edu/tgn/1027299>,Kraslice,,,,,,,,,,50.35,12.5167
<http://vocab.getty.edu/tgn/1026013>,Saalfelden,,,,,,,,,,47.4333,12.8667
<http://vocab.getty.edu/tgn/1025669>,Hohenems,,,,,,,,,,47.3833,9.7167
<http://vocab.getty.edu/tgn/1025533>,Felixdorf,,,,,,,,,,47.8833,16.25
<http://vocab.getty.edu/tgn/1025956>,Pottendorf,,,,,,,,,,47.9167,16.3833
<http://vocab.getty.edu/tgn/1030739>,Staplehurst,"""Staplehurst""@en",,,,,,,,,51.15,0.55
<http://vocab.getty.edu/tgn/1029764>,Knebworth,"""Knebworth""@en",,,,,,,,,51.866667,-0.2
<http://vocab.getty.edu/tgn/1028299>,Altrincham,"""Altrincham""@en",,,,,,,,,53.383333,-2.35
<http://vocab.getty.edu/tgn/1025948>,Pians,,,,,,,,,,47.1333,10.5
<http://vocab.getty.edu/tgn/1025649>,Heidenreichstein,,,,,,,,,,48.8833,15.1333
<http://vocab.getty.edu/tgn/1026247>,Wolfurt,,,,,,,,,,47.4667,9.75
<http://vocab.getty.edu/tgn/1029577>,Hoddesdon,,,,,,,,,,51.7667,-0.0167
<http://vocab.getty.edu/tgn/1030747>,Stockbridge,"""Stockbridge""@en",,,,,,,,,51.1,-1.483333
<http://vocab.getty.edu/tgn/1027461>,Pelhřimov,,,,,,,,,,49.4333,15.2167
<http://vocab.getty.edu/tgn/1030472>,Rugby,"""Rugby""@en",,,,,,,,,52.366667,-1.25
<http://vocab.getty.edu/tgn/1030297>,Pendlebury,"""Pendlebury""@en",,,,,,,,,53.516667,-2.333333
<http://vocab.getty.edu/tgn/1026018>,Sankt Andrä,,,,,,,,,,46.7667,14.8167
<http://vocab.getty.edu/tgn/1025900>,Obergurgl,,,,,,,,,,46.8667,11.0333
<http://vocab.getty.edu/tgn/1026051>,Sankt Veit an der Glan,,,,,,,,,,46.7667,14.35
<http://vocab.getty.edu/tgn/1026030>,Sankt Johann im Pongau,,,,,,,,,,47.35,13.2
<http://vocab.getty.edu/tgn/1029037>,Denham,,,,,,,,,,51.566667,-0.5
<http://vocab.getty.edu/tgn/1027169>,Dvůr Králové,,,,,,,,,,50.45,15.8333
<http://vocab.getty.edu/tgn/1030744>,Stevenage,"""Stevenage""@en",,,,,,,,,51.916667,-0.216667
<http://vocab.getty.edu/tgn/1027273>,Kladno,,,,,,,,,,50.1667,14.1167
<http://vocab.getty.edu/tgn/1030136>,New Alresford,"""New Alresford""@en",,,,,,,,,51.083333,-1.166667
<http://vocab.getty.edu/tgn/1028585>,Boxmoor,,,,,,,,,,51.7333,-0.4833
<http://vocab.getty.edu/tgn/1025805>,Möllersdorf,,,,,,,,,,48.0333,16.3
<http://vocab.getty.edu/tgn/1025456>,Bludenz,,,,,,,,,,47.1667,9.8333
<http://vocab.getty.edu/tgn/1027370>,Mariánské Lázně,,,,,,,,,,49.8,12.75
<http://vocab.getty.edu/tgn/1027016>,Červený Kostelec,,,,,,,,,,50.4833,16.1
<http://vocab.getty.edu/tgn/1025977>,Radstadt,,,,,,,,,,47.3833,13.4667
<http://vocab.getty.edu/tgn/1025984>,Rankweil,,,,,,,,,,47.2833,9.6667
<http://vocab.getty.edu/tgn/1031182>,Woking,"""Woking""@en",,,,,,,,,51.316667,-0.533333
<http://vocab.getty.edu/tgn/1027394>,Moravská Třebová,,,,,,,,,,49.7833,16.6667
<http://vocab.getty.edu/tgn/1027423>,Nové Město nad Metují,,,,,,,,,,50.354135,16.139448
<http://vocab.getty.edu/tgn/1025641>,Hall in Tirol,,,,,,,,,,47.2833,11.5167
<http://vocab.getty.edu/tgn/1029771>,Knutsford,,,,,,,,,,53.3,-2.366667
<http://vocab.getty.edu/tgn/1030208>,Northiam,"""Northiam""@en",,,,,,,,,50.983333,0.6
<http://vocab.getty.edu/tgn/1025625>,Höchst,,,,,,,,,,47.4667,9.6333
<http://vocab.getty.edu/tgn/1028596>,Braintree,,,,,,,,,,51.883333,0.566667
<http://vocab.getty.edu/tgn/1029655>,Ide Hill,"""Ide Hill""@en",,,,,,,,,51.25,0.1333
<http://vocab.getty.edu/tgn/1028909>,Colnbrook,"""Colnbrook""@en",,,,,,,,,51.466667,-0.516667
<http://vocab.getty.edu/tgn/1027519>,Senec,,,,,,,,,,48.2167,17.4167
<http://vocab.getty.edu/tgn/1030643>,Skelmersdale,"""Skelmersdale""@en",,,,,,,,,53.533333,-2.8
<http://vocab.getty.edu/tgn/1028481>,Bideford,"""Bideford""@en",,,,,,,,,51.016667,-4.216667
<http://vocab.getty.edu/tgn/1028966>,Crawley,"""Crawley""@en",,,,,,,,,51.116667,-0.183333
<http://vocab.getty.edu/tgn/1027710>,Askov,,,,,,,,,,55.4667,9.1167
<http://vocab.getty.edu/tgn/1029749>,Kirkbymoorside,,,,,,,,,,54.266667,-0.933333
<http://vocab.getty.edu/tgn/1030660>,Solihull,"""Solihull""@en",,,,,,,,,52.416667,-1.783333
<http://vocab.getty.edu/tgn/1026396>,Diksmuide,,,,,,,,,,51.032483,2.863836
<http://vocab.getty.edu/tgn/1026252>,Zürs,,,,,,,,,,47.1667,10.1667
<http://vocab.getty.edu/tgn/1026347>,Bouillon,,,,,,,,,,49.8,5.066667
<http://vocab.getty.edu/tgn/1026007>,Rottenmann,,,,,,,,,,47.5333,14.3833
<http://vocab.getty.edu/tgn/1031061>,West Malling,"""West Malling""@en",,,,,,,,,51.283333,0.416667
<http://vocab.getty.edu/tgn/1026264>,Zwentendorf,,,,,,,,,,48.35,15.9167
<http://vocab.getty.edu/tgn/1027215>,Hrádek nad Nisou,,,,,,,,,,50.85,14.85
<http://vocab.getty.edu/tgn/1028875>,Cleckheaton,"""Cleckheaton""@en-gb",,,,,,,,,53.716667,-1.716667
<http://vocab.getty.edu/tgn/1027418>,Nova Paka,,,,,,,,,,50.5,15.5
<http://vocab.getty.edu/tgn/1026348>,Boussu,,,,,,,,,,50.433333,3.8
<http://vocab.getty.edu/tgn/1025938>,Perchtoldsdorf,,,,,,,,,,48.1333,16.2833
<http://vocab.getty.edu/tgn/1028322>,Arley,,,,,,,,,,53.3167,-2.5
<http://vocab.getty.edu/tgn/1027506>,Ružomberok,,,,,,,,,,49.0667,19.25
<http://vocab.getty.edu/tgn/1027426>,Nové Sedlo,,,,,,,,,,50.2167,12.7333
<http://vocab.getty.edu/tgn/1025825>,Maria Enzersdorf,,,,,,,,,,48.1,16.2833
<http://vocab.getty.edu/tgn/1026842>,Asenovgrad,,,,,,,,,,42,24.8833
<http://vocab.getty.edu/tgn/1025721>,Kirchberg,,,,,,,,,,48.45,15.9
<http://vocab.getty.edu/tgn/1026393>,Deurne,,,,,,,,,,51.221343,4.465948
<http://vocab.getty.edu/tgn/1026209>,Wattens,,,,,,,,,,47.3,11.6167
<http://vocab.getty.edu/tgn/1025618>,Gunskirchen,,,,,,,,,,48.1333,12.9667
<http://vocab.getty.edu/tgn/1025677>,Horn,,,,,,,,,,48.6667,15.6667
<http://vocab.getty.edu/tgn/1025696>,Köflach,,,,,,,,,,47.0667,15.0667
<http://vocab.getty.edu/tgn/1027291>,Kostelec nad Labem,,,,,,,,,,50.2333,14.6
<http://vocab.getty.edu/tgn/1025502>,Ehrwald,,,,,,,,,,47.4,10.9333
<http://vocab.getty.edu/tgn/1026020>,Sankt Anton am Arlberg,,,,,,,,,,47.1333,10.2667
<http://vocab.getty.edu/tgn/1026367>,Chaudfontaine,,,,,,,,,,50.583333,5.633333
<http://vocab.getty.edu/tgn/1028961>,Cranbrook,"""Cranbrook""@en",,,,,,,,,51.083333,0.533333
<http://vocab.getty.edu/tgn/1030976>,Wallasey,"""Wallasey""@en",,,,,,,,,53.433333,-3.066667
<http://vocab.getty.edu/tgn/1025894>,Nofels,,,,,,,,,,47.2667,9.5833
<http://vocab.getty.edu/tgn/1031011>,Washington,"""Washington""@en",,,,,,,,,54.9,-1.516667
<http://vocab.getty.edu/tgn/1027565>,Svatava,,,,,,,,,,50.1833,12.6333
<http://vocab.getty.edu/tgn/1030741>,Staveley,,,,,,,,,,53.266667,-1.35
<http://vocab.getty.edu/tgn/1025803>,Mödling,,,,,,,,,,48.0667,16.3667
<http://vocab.getty.edu/tgn/1025801>,Lustenau,,,,,,,,,,47.4333,9.7
<http://vocab.getty.edu/tgn/1031273>,Ekenäs,,,,,,,,,,60,23.5
<http://vocab.getty.edu/tgn/1025632>,Haag am Hausruck,,,,,,,,,,48.1833,13.6333
<http://vocab.getty.edu/tgn/1029209>,Fairseat,,,,,,,,,,51.3333,0.3333
<http://vocab.getty.edu/tgn/1027001>,Ústí nad Labem,"""Ústí nad Labem""@en","""Aussig""@de",,,,,,,,50.6833,14
<http://vocab.getty.edu/tgn/1026231>,Wiener Neudorf,,,,,,,,,,48.0833,16.3167
<http://vocab.getty.edu/tgn/1026159>,Trins,,,,,,,,,,47.0833,11.4167
<http://vocab.getty.edu/tgn/1028342>,Ashton upon Mersey,,,,,,,,,,53.4333,-2.3167
<http://vocab.getty.edu/tgn/1025638>,Hainburg an der Donau,,,,,,,,,,48.15,16.95
<http://vocab.getty.edu/tgn/1026416>,Essen,,,,,,,,,,51.466667,4.466667
<http://vocab.getty.edu/tgn/1063983>,Cham,,,,,,,,,,47.182126,8.463576
<http://vocab.getty.edu/tgn/1063898>,Andelfingen,,,,,,,,,,47.594829,8.679678
<http://vocab.getty.edu/tgn/1063888>,Allschwil,,,,,,,,,,47.550744,7.535994
<http://vocab.getty.edu/tgn/1063896>,Amsteg,,,,,,,,,,46.771317,8.669632
<http://vocab.getty.edu/tgn/1063987>,Charmey,,,,,,,,,,46.616223,7.168141
<http://vocab.getty.edu/tgn/1063947>,Bivio,,,"""Bivio""@it",,,,,,,46.468518,9.650882
<http://vocab.getty.edu/tgn/1064025>,Dussnang,,,,,,,,,,47.4333,8.9667
<http://vocab.getty.edu/tgn/1063918>,Büren an der Aare,,,,,,,,,,47.139756,7.372197
<http://vocab.getty.edu/tgn/1063988>,Chavornay,,,,,,,,,,46.705656,6.56988
<http://vocab.getty.edu/tgn/1063897>,Andeer,,,,,,,,,,46.603867,9.426647
<http://vocab.getty.edu/tgn/1064023>,Dongio,,,"""Dongio""@it",,,,,,,46.437824,8.955257
<http://vocab.getty.edu/tgn/1063973>,Camedo,,,"""Camedo""@it",,,,,,,46.155112,8.60859
<http://vocab.getty.edu/tgn/1064026>,Ebnat,,,,,,,,,,47.2667,9.1167
<http://vocab.getty.edu/tgn/1063974>,Campo Blenio,,,"""Campo Blenio""@it",,,,,,,46.556683,8.936367
<http://vocab.getty.edu/tgn/1063949>,Blonay,,,,,,,,,,46.465737,6.895053
<http://vocab.getty.edu/tgn/1063941>,Bière,,,,,,,,,,46.537379,6.332352
<http://vocab.getty.edu/tgn/1063904>,Arbon,,"""Arbon""@de",,,,,,,,47.51594,9.43549
<http://vocab.getty.edu/tgn/1063884>,Aigle,,,,"""Aigle""@fr",,,,,,46.31614,6.958194
<http://vocab.getty.edu/tgn/1063928>,Baulmes,,,,,,,,,,46.790264,6.521749
<http://vocab.getty.edu/tgn/1063933>,Beinwil am See,,,,,,,,,,47.2667,8.2167
<http://vocab.getty.edu/tgn/1063958>,Breno,,,"""Breno""@it",,,,,,,46.033477,8.870798
<http://vocab.getty.edu/tgn/1063916>,Bätterkinden,,,,,,,,,,47.133633,7.541035
<http://vocab.getty.edu/tgn/1063996>,Collombey,,,,"""Collombey""@fr",,,,,,46.273851,6.947887
<http://vocab.getty.edu/tgn/1063931>,Beckenried,,,,,,,,,,46.96653,8.47575
<http://vocab.getty.edu/tgn/1063986>,Chancy,,,,"""Chancy""@fr",,,,,,46.149472,5.971914
<http://vocab.getty.edu/tgn/1064006>,Crassier,,,,"""Crassier""@fr",,,,,,46.373591,6.166487
<http://vocab.getty.edu/tgn/1063934>,Bellelay,,,,,,,,,,47.263297,7.166579
<http://vocab.getty.edu/tgn/1063953>,Bonfol,,,,,,,,,,47.477352,7.151441
<http://vocab.getty.edu/tgn/1063902>,Aquila,,,"""Aquila""@it",,,,,,,46.502972,8.948181
<http://vocab.getty.edu/tgn/1064002>,Cossonay,,,,,,,,,,46.614163,6.506653
<http://vocab.getty.edu/tgn/1063966>,Brunni,,,,,,,,,,47.05,8.7167
<http://vocab.getty.edu/tgn/1063979>,Celerina,,,"""Celerina""@it",,,,,,,46.512165,9.857942
<http://vocab.getty.edu/tgn/1063903>,Arbedo,,,,,,,,,,46.2167,9.05
<http://vocab.getty.edu/tgn/1064007>,Cresta,,,,,,,,,,46.473005,9.512428
<http://vocab.getty.edu/tgn/1063969>,Buchs,,,,,,,,,,47.1667,9.4667
<http://vocab.getty.edu/tgn/1064016>,Dielsdorf,,,,,,,,,,47.480247,8.45628
<http://vocab.getty.edu/tgn/1063948>,Blatten,,"""Blatten""@de",,,,,,,,46.420426,7.819293
<http://vocab.getty.edu/tgn/1063879>,Adliswil,,,,,,,,,,47.311896,8.528684
<http://vocab.getty.edu/tgn/1063967>,Brusio,,,"""Brusio""@it",,,,,,,46.259531,10.123846
<http://vocab.getty.edu/tgn/1063923>,Balgach,,"""Balgach""@de",,,,,,,,47.405558,9.607023
<http://vocab.getty.edu/tgn/1063909>,Arosa,,,,,,,,,,46.777926,9.676206
<http://vocab.getty.edu/tgn/1063942>,Biasca,,,"""Biasca""@it",,,,,,,46.356073,8.969924
<http://vocab.getty.edu/tgn/1064027>,Echallens,,,,,,,,,,46.642498,6.637324
<http://vocab.getty.edu/tgn/1063956>,Braunwald,,,,,,,,,,-46.95,9
<http://vocab.getty.edu/tgn/1064022>,Dombresson,,,,,,,,,,47.071971,6.958751
<http://vocab.getty.edu/tgn/1063945>,Binningen,,,,,,,,,,47.533588,7.568512
<http://vocab.getty.edu/tgn/1064021>,Domat/Ems,,"""Domat/Ems""@de",,,,,,,,46.834827,9.450752
<http://vocab.getty.edu/tgn/1063982>,Châtel-Saint-Denis,,,,,,,,,,46.526672,6.89975
<http://vocab.getty.edu/tgn/1063937>,Bergün,,,,,,,,,,46.62906,9.745179
<http://vocab.getty.edu/tgn/1064028>,Eglisau,,,,,,,,,,47.576886,8.526155
<http://vocab.getty.edu/tgn/1063989>,Cheseaux,,,,,,,,,,46.586689,6.606391
<http://vocab.getty.edu/tgn/1063882>,Affoltern,"""Affoltern""@en",,,,,,,,,47.281224,8.45346
<http://vocab.getty.edu/tgn/1063952>,Boncourt,,,,,,,,,,47.495603,7.014229
<http://vocab.getty.edu/tgn/1063930>,Beatenberg,,,,,,,,,,46.693086,7.785226
<http://vocab.getty.edu/tgn/1063878>,Adelboden,,,,,,,,,,46.491829,7.559315
<http://vocab.getty.edu/tgn/1063901>,Apples,,,,,,,,,,46.552405,6.429052
<http://vocab.getty.edu/tgn/1063995>,Cimalmotto,,,"""Cimalmotto""@it",,,,,,,46.283681,8.488581
<http://vocab.getty.edu/tgn/1063880>,Aesch,,,,,,,,,,47.469456,7.595763
<http://vocab.getty.edu/tgn/1064003>,Court,,,,,,,,,,47.23955,7.338886
<http://vocab.getty.edu/tgn/1064009>,Curaglia,,,,,,,,,,46.673195,8.858063
<http://vocab.getty.edu/tgn/1063908>,Arolla,,,,"""Arolla""@fr",,,,,,46.025325,7.481919
<http://vocab.getty.edu/tgn/1063927>,Bassecourt,,,,,,,,,,47.338293,7.244943
<http://vocab.getty.edu/tgn/1063925>,Bargen,,,,,,,,,,47.7667,8.6167
<http://vocab.getty.edu/tgn/1064012>,Dürrenboden,,,,,,,,,,46.933333,8.833333
<http://vocab.getty.edu/tgn/1063971>,Buochs,,,,,,,,,,46.973976,8.422788
<http://vocab.getty.edu/tgn/1063955>,Bourg-Saint-Pierre,,,,,,,,,,45.949168,7.207757
<http://vocab.getty.edu/tgn/1063894>,Amriswill,,,,,,,,,,47.55,9.3
<http://vocab.getty.edu/tgn/1063975>,Campocologno,,,"""Campocologno""@it",,,,,,,46.232478,10.14268
<http://vocab.getty.edu/tgn/1064000>,Concise,,,,,,,,,,46.850636,6.7207
<http://vocab.getty.edu/tgn/1063944>,Bignasco,,,"""Bignasco""@it",,,,,,,46.338445,8.608164
<http://vocab.getty.edu/tgn/1063906>,Ardon,,,,"""Ardon""@fr",,,,,,46.209506,7.26012
<http://vocab.getty.edu/tgn/1063887>,Alle,,,,,,,,,,47.426175,7.129112
<http://vocab.getty.edu/tgn/1063950>,Boltigen,,,,,,,,,,46.628904,7.391109
<http://vocab.getty.edu/tgn/1063951>,Bonaduz,,,,,,,,,,46.811032,9.398214
<http://vocab.getty.edu/tgn/1063924>,Balsthal,,,,,,,,,,47.31591,7.693047
<http://vocab.getty.edu/tgn/1063999>,Compatsch,,,,,,,,,,46.959634,10.400155
<http://vocab.getty.edu/tgn/1064010>,Döttingen,,,,,,,,,,47.568488,8.260461
<http://vocab.getty.edu/tgn/1063905>,Ardez,,,,,,,,,,46.77506,10.202284
<http://vocab.getty.edu/tgn/1063992>,Chippis,,,,"""Chippis""@fr",,,,,,46.2802,7.539622
<http://vocab.getty.edu/tgn/1063940>,Bex,,,,"""Bex""@fr",,,,,,46.24965,7.009804
<http://vocab.getty.edu/tgn/1063963>,Broc,,,,,,,,,,46.605135,7.098908
<http://vocab.getty.edu/tgn/1063976>,Capolago,,,"""Capolago""@it",,,,,,,45.903681,8.979218
<http://vocab.getty.edu/tgn/1064008>,Cully,,,,,,,,,,46.488301,6.730109
<http://vocab.getty.edu/tgn/1063881>,Aeschi,,,,,,,,,,46.658473,7.69611
<http://vocab.getty.edu/tgn/1064001>,Coppet,,,,"""Coppet""@fr",,,,,,46.321275,6.188907
<http://vocab.getty.edu/tgn/1063915>,Ayer,,,,"""Ayer""@fr",,,,,,46.18088,7.601162
<http://vocab.getty.edu/tgn/1063883>,Agno,,,,,,,,,,45.983333,8.85
<http://vocab.getty.edu/tgn/1063984>,Champéry,,,,"""Champéry""@fr",,,,,,46.177693,6.870174
<http://vocab.getty.edu/tgn/1063892>,Alvaneu,,,,,,,,,,46.67892,9.64378
<http://vocab.getty.edu/tgn/1063910>,Arth,,,,,,,,,,47.06337,8.523485
<http://vocab.getty.edu/tgn/1063913>,Ausserferrera,,,,,,,,,,46.557064,9.440275
<http://vocab.getty.edu/tgn/1063936>,Belp,,,,,,,,,,46.890805,7.499042
<http://vocab.getty.edu/tgn/1063985>,Champex,,,,"""Champex""@fr",,,,,,46.031239,7.11545
<http://vocab.getty.edu/tgn/1063991>,Chiasso,,,"""Chiasso""@it",,,,,,,45.834826,9.026386
<http://vocab.getty.edu/tgn/1063920>,Baar,,,,,,,,,,47.196254,8.529544
<http://vocab.getty.edu/tgn/1063981>,Château-d'Oex,,,,,,,,,,46.47501,7.133601
<http://vocab.getty.edu/tgn/1063997>,Colombier,,,,,,,,,,46.967085,6.856604
<http://vocab.getty.edu/tgn/1063889>,Alpnachstad,,,,,,,,,,46.95437,8.27637
<http://vocab.getty.edu/tgn/1064013>,Dagmersellen,,,,,,,,,,47.213658,7.984664
<http://vocab.getty.edu/tgn/1063968>,Bubendorf,,,,,,,,,,47.44586,7.737586
<http://vocab.getty.edu/tgn/1064068>,Gais,,"""Gais""@de",,,,,,,,47.360908,9.451185
<http://vocab.getty.edu/tgn/1064146>,Kloten,,,,,,,,,,47.449817,8.594777
<http://vocab.getty.edu/tgn/1064158>,La Roche,,,,,,,,,,46.697232,7.139304
<http://vocab.getty.edu/tgn/1064153>,Lützelflüh,,,,,,,,,,47.007569,7.691653
<http://vocab.getty.edu/tgn/1064157>,La Punt,,,,,,,,,,46.5833,9.9167
<http://vocab.getty.edu/tgn/1064154>,La Brévine,,,,,,,,,,46.98039,6.606904
<http://vocab.getty.edu/tgn/1064078>,Giswil,,,,,,,,,,46.833327,8.180646
<http://vocab.getty.edu/tgn/1064167>,Langnau im Emmental,,,,,,,,,,46.93936,7.78738
<http://vocab.getty.edu/tgn/1064107>,Hindelbank,,,,,,,,,,47.041963,7.541673
<http://vocab.getty.edu/tgn/1064172>,Laufenburg,,,,,,,,,,47.559248,8.060446
<http://vocab.getty.edu/tgn/1064164>,Landquart,,,,,,,,,,46.963157,9.557922
<http://vocab.getty.edu/tgn/1064100>,Hallau,,,,,,,,,,47.699817,8.457967
<http://vocab.getty.edu/tgn/1064070>,Gandria,,,"""Gandria""@it",,,,,,,46.008326,9.008324
<http://vocab.getty.edu/tgn/1064029>,Egnach,,"""Egnach""@de",,,,,,,,47.54268,9.38048
<http://vocab.getty.edu/tgn/1064120>,Innerthal,,"""Innerthal""@de",,,,,,,,47.10567,8.92011
<http://vocab.getty.edu/tgn/1064038>,Eriswil,,,,,,,,,,47.078158,7.851489
<http://vocab.getty.edu/tgn/1064143>,Kleinlützel,,,,,,,,,,47.425368,7.422936
<http://vocab.getty.edu/tgn/1064110>,Hochdorf,,,,,,,,,,47.168408,8.291788
<http://vocab.getty.edu/tgn/1064145>,Klosters Platz,,,,,,,,,,46.868814,9.881514
<http://vocab.getty.edu/tgn/1064085>,Gordola,,,"""Gordola""@it",,,,,,,46.18031,8.864996
<http://vocab.getty.edu/tgn/1064093>,Grolley,,,,,,,,,,46.834009,7.073733
<http://vocab.getty.edu/tgn/1064076>,Gerzensee,,,,,,,,,,46.839213,7.545461
<http://vocab.getty.edu/tgn/1064090>,Grenchen,,,,,,,,,,47.19354,7.396577
<http://vocab.getty.edu/tgn/1064098>,Guttannen,,,,,,,,,,46.655108,8.289509
<http://vocab.getty.edu/tgn/1064150>,Kriens,,,,,,,,,,47.035366,8.276307
<http://vocab.getty.edu/tgn/1064051>,Filzbach,,"""Filzbach""@de",,,,,,,,47.12208,9.12607
<http://vocab.getty.edu/tgn/1064133>,Küssnacht,,,,,,,,,,47.085571,8.442057
<http://vocab.getty.edu/tgn/1064115>,Huttwil,,,,,,,,,,47.11502,7.862087
<http://vocab.getty.edu/tgn/1064105>,Herznach,,,,,,,,,,47.4667,8.05
<http://vocab.getty.edu/tgn/1064075>,Gersau,,,,,,,,,,46.994189,8.524996
<http://vocab.getty.edu/tgn/1064081>,Glattfelden,,,,,,,,,,47.556653,8.505548
<http://vocab.getty.edu/tgn/1064170>,Latterbach,,,,,,,,,,46.6667,7.5833
<http://vocab.getty.edu/tgn/1064102>,Heiden,,"""Heiden""@de",,,,,,,,47.442549,9.532934
<http://vocab.getty.edu/tgn/1064180>,Le Locle,,,,,,,,,,47.059533,6.752278
<http://vocab.getty.edu/tgn/1064097>,Gsteig,,,,,,,,,,46.385851,7.267507
<http://vocab.getty.edu/tgn/1064065>,Gänsbrunnen,,,,,,,,,,47.262847,7.467509
<http://vocab.getty.edu/tgn/1064138>,Kerzers,,,,,,,,,,46.975232,7.198898
<http://vocab.getty.edu/tgn/1064109>,Hinwil,,"""Hinwil""@de",,,,,,,,47.29702,8.84348
<http://vocab.getty.edu/tgn/1064048>,Feldis,,,,,,,,,,46.794216,9.432029
<http://vocab.getty.edu/tgn/1064056>,Flims,,,,,,,,,,46.837052,9.284577
<http://vocab.getty.edu/tgn/1064175>,Lauterbrunnen,,,,,,,,,,46.595676,7.907654
<http://vocab.getty.edu/tgn/1064121>,Innertkirchen,,,,,,,,,,46.707219,8.217508
<http://vocab.getty.edu/tgn/1064144>,Klingnau,,,,,,,,,,47.57998,8.250484
<http://vocab.getty.edu/tgn/1064072>,Gelterkinden,,,,,,,,,,47.464968,7.85174
<http://vocab.getty.edu/tgn/1064128>,Jenaz,,,,,,,,,,46.92892,9.712754
<http://vocab.getty.edu/tgn/1064047>,Faido,,,"""Faido""@it",,,,,,,46.479417,8.797659
<http://vocab.getty.edu/tgn/1064131>,Küblis,,,,,,,,,,46.913683,9.771985
<http://vocab.getty.edu/tgn/1064089>,Greifensee,,,,,,,,,,47.367869,8.680017
<http://vocab.getty.edu/tgn/1064091>,Grimmialp,,,,,,,,,,46.566667,7.483333
<http://vocab.getty.edu/tgn/1064054>,Flawil,,"""Flawil""@de",,,,,,,,47.413011,9.183238
<http://vocab.getty.edu/tgn/1064116>,Il Fuorn,,,,,,,,,,46.664516,10.210168
<http://vocab.getty.edu/tgn/1064130>,Köniz,,,,,,,,,,46.923391,7.408688
<http://vocab.getty.edu/tgn/1064033>,Emmenbrücke,,,,,,,,,,47.072828,8.288961
<http://vocab.getty.edu/tgn/1064067>,Gadmen,,,,,,,,,,46.737326,8.352235
<http://vocab.getty.edu/tgn/1064032>,Embrach,,,,,,,,,,47.507063,8.595681
<http://vocab.getty.edu/tgn/1064094>,Gross Höchstetten,,,,,,,,,,46.904904,7.637278
<http://vocab.getty.edu/tgn/1064057>,Flums,,"""Flums""@de",,,,,,,,47.095202,9.343204
<http://vocab.getty.edu/tgn/1064079>,Gland,,,,"""Gland""@fr",,,,,,46.419722,6.271947
<http://vocab.getty.edu/tgn/1064159>,La Sagne,,,,,,,,,,47.044783,6.807559
<http://vocab.getty.edu/tgn/1064137>,Kandersteg,,,,,,,,,,46.496068,7.674825
<http://vocab.getty.edu/tgn/1064040>,Ermatingen,,"""Ermatingen""@de",,,,,,,,47.67057,9.08573
<http://vocab.getty.edu/tgn/1064043>,Estavayer-le-Lac,,,,,,,,,,46.849125,6.845805
<http://vocab.getty.edu/tgn/1064099>,Gwatt,,,,,,,,,,46.720439,7.622265
<http://vocab.getty.edu/tgn/1064136>,Kaltbrunn,,"""Kaltbrunn""@de",,,,,,,,47.213669,9.0259
<http://vocab.getty.edu/tgn/1064086>,Gossau,,"""Gossau""@de",,,,,,,,47.41551,9.25482
<http://vocab.getty.edu/tgn/1064104>,Herisau,,"""Herisau""@de",,,,,,,,47.38271,9.27186
<http://vocab.getty.edu/tgn/1064092>,Grindelwald,,,,,,,,,,46.625435,8.033231
<http://vocab.getty.edu/tgn/1064114>,Hundwil,,"""Hundwil""@de",,,,,,,,47.364853,9.318664
<http://vocab.getty.edu/tgn/1064134>,Küttigen,,,,,,,,,,47.415658,8.047673
<http://vocab.getty.edu/tgn/1064108>,Hinterrhein,,,,,,,,,,46.531063,9.198837
<http://vocab.getty.edu/tgn/1064055>,Fleurier,,,,,,,,,,46.903265,6.582135
<http://vocab.getty.edu/tgn/1064168>,Langwies,,,,,,,,,,46.819247,9.709382
<http://vocab.getty.edu/tgn/1064039>,Erlach,,,,,,,,,,47.042973,7.099604
<http://vocab.getty.edu/tgn/1064074>,Gerlafingen,,,,,,,,,,47.169782,7.575051
<http://vocab.getty.edu/tgn/1064171>,Laufen,,,,,,,,,,47.420878,7.507521
<http://vocab.getty.edu/tgn/1064140>,Kiental,,,,,,,,,,46.587959,7.723944
<http://vocab.getty.edu/tgn/1064059>,Freienbach,,"""Freienbach""@de",,,,,,,,47.201877,8.757533
<http://vocab.getty.edu/tgn/1064126>,Isone,,,"""Isone""@it",,,,,,,46.128624,8.985355
<http://vocab.getty.edu/tgn/1064062>,Frutigen,,,,,,,,,,46.58782,7.64751
<http://vocab.getty.edu/tgn/1064069>,Gams,,"""Gams""@de",,,,,,,,47.207864,9.443274
<http://vocab.getty.edu/tgn/1064125>,Iseltwald,,,,,,,,,,46.710758,7.964152
<http://vocab.getty.edu/tgn/1064118>,Indemini,,,"""Indemini""@it",,,,,,,46.094434,8.825714
<http://vocab.getty.edu/tgn/1064063>,Fuldera,,,,,,,,,,46.60875,10.370637
<http://vocab.getty.edu/tgn/1064071>,Gelfingen,,,,,,,,,,47.166667,8.25
<http://vocab.getty.edu/tgn/1064177>,Le Brassus,,,,,,,,,,46.583768,6.211859
<http://vocab.getty.edu/tgn/1064165>,Langenbruck,,,,,,,,,,47.348549,7.768837
<http://vocab.getty.edu/tgn/1064152>,Läufelfingen,,,,,,,,,,47.397028,7.854867
<http://vocab.getty.edu/tgn/1064061>,Frick,,,,,,,,,,47.51169,8.024713
<http://vocab.getty.edu/tgn/1064124>,Intragna,,,"""Intragna""@it",,,,,,,46.177515,8.700163
<http://vocab.getty.edu/tgn/1064148>,Konolfingen Dorf,,,,,,,,,,46.889503,7.630365
<http://vocab.getty.edu/tgn/1064036>,Ennenda,,,,,,,,,,47.034647,9.077248
<http://vocab.getty.edu/tgn/1064083>,Goldau,,,,,,,,,,47.048909,8.549463
<http://vocab.getty.edu/tgn/1064112>,Horw,,,,,,,,,,47.016917,8.309556
<http://vocab.getty.edu/tgn/1064035>,Engwilen,,,,,,,,,,47.6167,9.0833
<http://vocab.getty.edu/tgn/1064139>,Kesswil,,"""Kesswil""@de",,,,,,,,47.5935,9.31723
<http://vocab.getty.edu/tgn/1064064>,Fusio,,,"""Fusio""@it",,,,,,,46.444457,8.663039
<http://vocab.getty.edu/tgn/1064111>,Horgen,,,,,,,,,,47.255924,8.598672
<http://vocab.getty.edu/tgn/1064031>,Elm,,,,,,,,,,46.919017,9.172416
<http://vocab.getty.edu/tgn/1064119>,Innerferrera,,,"""Innerferrera""@it",,,,,,,46.521188,9.443116
<http://vocab.getty.edu/tgn/1064103>,Henniez,,,,,,,,,,46.75,6.8833
<http://vocab.getty.edu/tgn/7011691>,Levoča,,,,,,,,,,49.0167,20.5833
<http://vocab.getty.edu/tgn/7011487>,Hove,"""Hove""@en",,,,,,,,,50.833333,-0.183333
<http://vocab.getty.edu/tgn/7011179>,Siena,"""Siena""@en","""Siena""@de","""Siena""@it","""Siena""@fr",,,,"""Siena""@es",,43.318,11.33
<http://vocab.getty.edu/tgn/7011369>,Messinía,,,,,,,,,"""Messinía""@el-latn",37.25,21.8333
<http://vocab.getty.edu/tgn/7011443>,Hastings,"""Hastings""@en",,,,,,,,,50.85,0.6
<http://vocab.getty.edu/tgn/7011018>,Olimbía,"""Olympia""@en",,,,,,,,,37.6333,21.65
<http://vocab.getty.edu/tgn/7011049>,Stoke-on-Trent,"""Stoke-on-Trent""@en",,,,,,,,,53,-2.183333
<http://vocab.getty.edu/tgn/7011887>,Letchworth,"""Letchworth""@en",,,,,,,,,51.966667,-0.216667
<http://vocab.getty.edu/tgn/7011013>,Náfplio,,,,,,,,,"""Náfplio""@el-latn",37.568285,22.805282
<http://vocab.getty.edu/tgn/7011393>,Portsmouth,"""Portsmouth""@en",,,,,,,,,50.766667,-1.083333
<http://vocab.getty.edu/tgn/7011362>,Saint Ives,"""Saint Ives""@en",,,,,,,,,50.208611,-5.4875
<http://vocab.getty.edu/tgn/7011732>,Dorking,"""Dorking""@en",,,,,,,,,51.216667,-0.333333
<http://vocab.getty.edu/tgn/7010978>,Lisbon,"""Lisbon""@en",,,,,,,,,38.716667,-9.133333
<http://vocab.getty.edu/tgn/7011876>,Hertford,"""Hertford""@en",,,,,,,,,51.8,-0.066667
<http://vocab.getty.edu/tgn/7011889>,Tring,"""Tring""@en",,,,,,,,,51.783333,-0.65
<http://vocab.getty.edu/tgn/7011907>,Bedford,"""Bedford""@en",,,,,,,,,52.133333,-0.45
<http://vocab.getty.edu/tgn/7011182>,Thessaloníki,,,,,,,,,"""Thessaloníki""@el-latn",40.640278,22.943889
<http://vocab.getty.edu/tgn/7011624>,Kolín,,,,,,,,,,50.0333,15.1833
<http://vocab.getty.edu/tgn/7011643>,Kharkov,,,,,,,,,,50,36.25
<http://vocab.getty.edu/tgn/7011599>,Smolenskaya Oblast’,,,,,,,"""Smolenskaya Oblast""@ru-latn",,,55,33
<http://vocab.getty.edu/tgn/7011357>,Benešov,,,,,,,,,,49.8,14.6833
<http://vocab.getty.edu/tgn/7011593>,Samara,,,,,,,,,,53.1667,50.1667
<http://vocab.getty.edu/tgn/7011376>,Fareham,"""Fareham""@en",,,,,,,,,50.85,-1.183333
<http://vocab.getty.edu/tgn/7011656>,Odessa,,,,,,,,,,46.5,30.7667
<http://vocab.getty.edu/tgn/7011572>,Leningradskaya Oblast',,,,,,,"""Leningradskaya Oblast'""@ru-latn",,,60,32
<http://vocab.getty.edu/tgn/7011065>,Spárti,"""Sparta""@en",,,,,,,,,37.073333,22.429722
<http://vocab.getty.edu/tgn/7011529>,Košice,,,,,,,,,,48.7333,21.25
<http://vocab.getty.edu/tgn/7011600>,Sverdlovskaya Oblast',,,,,,,,,,58,62
<http://vocab.getty.edu/tgn/7011866>,Colchester,"""Colchester""@en",,,,,,,,,51.883333,0.9
<http://vocab.getty.edu/tgn/7011170>,Kaválla,,,,,,,,,"""Kaválla""@el-latn",41,24.5
<http://vocab.getty.edu/tgn/7011806>,Teplice,,,,,,,,,,50.6667,13.8167
<http://vocab.getty.edu/tgn/7011134>,Elefsína,,,,,,,,,"""Elefsína""@el-latn",38.041348,23.542951
<http://vocab.getty.edu/tgn/7011127>,Cirencester,"""Cirencester""@en",,,,,,,,,51.733333,-1.983333
<http://vocab.getty.edu/tgn/7011723>,Plzeň,"""Plzeň""@en","""Pilsen""@de",,,,,,,,49.75,13.4167
<http://vocab.getty.edu/tgn/7011407>,Chichester,,,,,,,,,,50.9167,-0.7833
<http://vocab.getty.edu/tgn/7011521>,Karlovy Vary,,,,,,,,,,50.2167,12.8667
<http://vocab.getty.edu/tgn/7011768>,East Molesey,"""East Molesey""@en",,,,,,,,,51.4,-0.35
<http://vocab.getty.edu/tgn/7011886>,Hitchin,"""Hitchin""@en",,,,,,,,,51.95,-0.266667
<http://vocab.getty.edu/tgn/7011256>,Bridgwater,"""Bridgwater""@en",,,,,,,,,51.129722,-3.000556
<http://vocab.getty.edu/tgn/7010948>,Leicester,"""Leicester""@en",,,,,,,,,52.633333,-1.133333
<http://vocab.getty.edu/tgn/7011415>,Littlehampton,"""Littlehampton""@en",,,,,,,,,50.8,-0.533333
<http://vocab.getty.edu/tgn/7011012>,Coventry,"""Coventry""@en",,,,,,,,,52.416667,-1.55
<http://vocab.getty.edu/tgn/7011812>,Varnsdorf,,,,,,,,,,50.915,14.617
<http://vocab.getty.edu/tgn/7011439>,Almaty,"""Almaty""@en",,,,,,,,,43.256,76.928
<http://vocab.getty.edu/tgn/7011804>,Wanstead,,,,,,,,,,51.5667,0.0333
<http://vocab.getty.edu/tgn/7011781>,London,"""London""@en",,"""Londra""@it","""Londres""@fr",,,,,,51.514248,-0.093145
<http://vocab.getty.edu/tgn/7011556>,Folkestone,"""Folkestone""@en",,,,,,,,,51.083333,1.183333
<http://vocab.getty.edu/tgn/7011554>,Dover,"""Dover""@en",,,,,,,,,51.133333,1.3
<http://vocab.getty.edu/tgn/7011385>,Southampton,"""Southampton""@en",,,,,,,,,50.9,-1.4
<http://vocab.getty.edu/tgn/7011301>,Plymouth,"""Plymouth""@en",,,,,,,,,50.396389,-4.138611
<http://vocab.getty.edu/tgn/7011036>,Pílos,,,,,,,,,"""Pílos""@el-latn",36.91,21.698611
<http://vocab.getty.edu/tgn/7011270>,Kikládhes,"""Cyclades""@en",,,,,,,,,37.4167,24.9167
<http://vocab.getty.edu/tgn/7011695>,Litoměřice,,,,,,,,,,50.55,14.1667
<http://vocab.getty.edu/tgn/7011562>,Ramsgate,"""Ramsgate""@en",,,,,,,,,51.333333,1.433333
<http://vocab.getty.edu/tgn/7011394>,Romsey,"""Romsey""@en",,,,,,,,,50.983333,-1.5
<http://vocab.getty.edu/tgn/7011901>,Milton Keynes,"""Milton Keynes""@en",,,,,,,,,52.033333,-0.7
<http://vocab.getty.edu/tgn/7011565>,Kaliningradskaya Oblast’,,,,,,,"""Kaliningrad""@ru-latn",,,54.75,21.5
<http://vocab.getty.edu/tgn/7011330>,Dodekánisos,"""Sporades""@en",,,,,,,,,36.8333,27.0833
<http://vocab.getty.edu/tgn/7011483>,Brighton,"""Brighton""@en",,,,,,,,,50.833333,-0.15
<http://vocab.getty.edu/tgn/7011171>,Évvoia,,,,,,,,,"""Évvoia""@el-latn",38.5,24
<http://vocab.getty.edu/tgn/7011116>,Epídhavros,,,,,,,,,"""Epídhavros""@el-latn",37.640431,23.156183
<http://vocab.getty.edu/tgn/7011710>,Mladá Boleslav,,,,,,,,,,50.4333,14.9167
<http://vocab.getty.edu/tgn/7011700>,Mahilyowskaya Voblasts',,,,,,,"""Mogilëvskaya Oblast'""@ru",,,54,30.75
<http://vocab.getty.edu/tgn/7011739>,Esher,"""Esher""@en",,,,,,,,,51.35,-0.366667
<http://vocab.getty.edu/tgn/7011420>,Arundel,"""Arundel""@en",,,,,,,,,50.85,-0.55
<http://vocab.getty.edu/tgn/7011798>,City of London,"""City of London""@en",,,,,,,,,51.514125,-0.093689
<http://vocab.getty.edu/tgn/7011025>,Pátrai,,,,,,,,,"""Pátrai""@el-latn",38.244444,21.734444
<http://vocab.getty.edu/tgn/7011712>,Most,,,,,,,,,,50.5167,13.65
<http://vocab.getty.edu/tgn/7011197>,Bath,"""Bath""@en",,,,,,,,,51.379444,-2.365556
<http://vocab.getty.edu/tgn/7010956>,Stratford-upon-Avon,"""Stratford-upon-Avon""@en",,,,,,,,,52.183333,-1.7
<http://vocab.getty.edu/tgn/7011666>,Poltavs'ka Oblast',,,,,,,,,,49.5,34
<http://vocab.getty.edu/tgn/7011872>,Welwyn Garden City,"""Welwyn Garden City""@en",,,,,,,,,51.8,-0.2
<http://vocab.getty.edu/tgn/7011694>,Liberec,,,,,,,,,,50.763,15.065
<http://vocab.getty.edu/tgn/7011686>,Samarqand,,,,,,,,,,39.583333,66.583333
<http://vocab.getty.edu/tgn/7010924>,Messíni,"""Messene""@en",,,,,,,,,37.166,22
<http://vocab.getty.edu/tgn/7011849>,Harlow,"""Harlow""@en",,,,,,,,,51.783333,0.166667
<http://vocab.getty.edu/tgn/7011161>,Khíos,,,,,,,,,"""Khíos""@el-latn",38.416667,26
<http://vocab.getty.edu/tgn/7011664>,L'vivs'ka Oblast',,,,,,,,,,50,24
<http://vocab.getty.edu/tgn/7011765>,Slovensko,"""Slovakia""@en","""Slowakei""@de",,"""Slovaquie""@fr",,,"""Словакия""@ru","""Eslovaquia""@es",,48.6667,19.5
<http://vocab.getty.edu/tgn/7011848>,Chelmsford,,,,,,,,,,51.733333,0.483333
<http://vocab.getty.edu/tgn/7011198>,Bristol,,,,,,,,,,51.45,-2.583333
<http://vocab.getty.edu/tgn/7011506>,Jihočeský Kraj,"""Jihocesky""@en",,,,,,,,,49.0833,14.5
<http://vocab.getty.edu/tgn/7011465>,Zlín,,,,,,,,,,49.2333,17.6667
<http://vocab.getty.edu/tgn/7011304>,Totnes,"""Totnes""@en",,,,,,,,,50.416667,-3.633333
<http://vocab.getty.edu/tgn/7011167>,Kefallinía,,,,,,,,,"""Kefallinía""@el-latn",38.25,20.5
<http://vocab.getty.edu/tgn/7011731>,Schweiz,"""Switzerland""@en","""Schweiz""@de","""Svizzera""@it","""Suisse""@fr",,,"""Швейцария""@ru","""Suiza""@es",,47,8
<http://vocab.getty.edu/tgn/7011210>,Salisbury,"""Salisbury""@en",,,,,,,,,51.066667,-1.783333
<http://vocab.getty.edu/tgn/7011827>,Hampstead,"""Hampstead""@en",,,,,,,,,51.55,-0.1833
<http://vocab.getty.edu/tgn/7011870>,Hatfield,"""Hatfield""@en",,,,,,,,,51.766667,-0.166667
<http://vocab.getty.edu/tgn/7011573>,Moskovskaya Oblast',,,,,,,"""Moskovskaya Oblast'""@ru-latn",,,55.75,37.5
<http://vocab.getty.edu/tgn/7011164>,Sámos,,,,,,,,,"""Sámos""@el-latn",37.75,26.75
<http://vocab.getty.edu/tgn/7011647>,Chernivets'ka Oblast',,,,,,,,,,48.25,26
<http://vocab.getty.edu/tgn/7011916>,Eton,"""Eton""@en",,,,,,,,,51.5,-0.6
<http://vocab.getty.edu/tgn/7010911>,Northampton,"""Northampton""@en",,,,,,,,,52.25,-0.883333
<http://vocab.getty.edu/tgn/7011265>,Ródhos,"""Rhodes""@en",,,,,,,,,36.440833,28.2225
<http://vocab.getty.edu/tgn/7011754>,Slaný,,,,,,,,,,50.2333,14.0833
<http://vocab.getty.edu/tgn/7011844>,Waltham Abbey,"""Waltham Abbey""@en",,,,,,,,,51.683333,0.016667
<http://vocab.getty.edu/tgn/7011805>,Woolwich,"""Woolwich""@en",,,,,,,,,51.4833,0.0667
<http://vocab.getty.edu/tgn/7011877>,Watford,"""Watford""@en",,,,,,,,,51.666667,-0.4
<http://vocab.getty.edu/tgn/7011840>,Brno,"""Brno""@en","""Brünn""@de",,,,,,,,49.2167,16.6667
<http://vocab.getty.edu/tgn/1064349>,Saanenmöser,,,,,,,,,,46.516242,7.30232
<http://vocab.getty.edu/tgn/1064257>,Nesslau,,"""Nesslau""@de",,,,,,,,47.222798,9.201242
<http://vocab.getty.edu/tgn/1064262>,Neuhausen,,,,,,,,,,47.7,8.6167
<http://vocab.getty.edu/tgn/1064261>,Neuenegg,,,,,,,,,,46.9,7.3
<http://vocab.getty.edu/tgn/1064279>,Olivone,,,"""Olivone""@it",,,,,,,46.528884,8.93715
<http://vocab.getty.edu/tgn/1064383>,Schöftland,,,,,,,,,,47.305716,8.051377
<http://vocab.getty.edu/tgn/1064231>,Melide,,,"""Melide""@it",,,,,,,45.953429,8.946742
<http://vocab.getty.edu/tgn/1064288>,Ostermundigen,,,,,,,,,,46.956112,7.487187
<http://vocab.getty.edu/tgn/1064325>,Rheinfelden,,,,,,,,,,47.553587,7.793839
<http://vocab.getty.edu/tgn/1064292>,Peseux,,,,,,,,,,46.982998,6.881593
<http://vocab.getty.edu/tgn/1064321>,Reigoldswil,,,,,,,,,,47.398241,7.687177
<http://vocab.getty.edu/tgn/1064306>,Pratteln,,,,,,,,,,47.52118,7.688415
<http://vocab.getty.edu/tgn/1064214>,Münsingen,,,,,,,,,,46.87309,7.568647
<http://vocab.getty.edu/tgn/1064392>,Schwanden,,,,,,,,,,46.995414,9.070095
<http://vocab.getty.edu/tgn/1064211>,Möhlin,,,,,,,,,,47.556412,7.846873
<http://vocab.getty.edu/tgn/1064296>,Pfyn,,,,,,,,,,47.5833,8.8
<http://vocab.getty.edu/tgn/1064391>,Schlieren,,,,,,,,,,47.39646,8.448587
<http://vocab.getty.edu/tgn/1064326>,Riaz,,,,,,,,,,46.642242,7.061831
<http://vocab.getty.edu/tgn/1064355>,Saint-Aubin,,,,,,,,,,46.889922,6.980858
<http://vocab.getty.edu/tgn/1064184>,Lengnau,,,,,,,,,,47.183824,7.373714
<http://vocab.getty.edu/tgn/1064394>,Schwarzsee,,,,,,,,,,46.6667,7.3333
<http://vocab.getty.edu/tgn/1064342>,Rothrist,,,,,,,,,,47.305162,7.890945
<http://vocab.getty.edu/tgn/1064258>,Netstal,,"""Netstal""@de",,,,,,,,47.063371,9.057342
<http://vocab.getty.edu/tgn/1064339>,Root,,,,,,,,,,47.114581,8.390207
<http://vocab.getty.edu/tgn/1064297>,Pieterlen,,,,,,,,,,47.17437,7.339657
<http://vocab.getty.edu/tgn/1064384>,Schönenwerd,,,,,,,,,,47.3691,8.001674
<http://vocab.getty.edu/tgn/1064230>,Melchtal,,,,,,,,,,46.834355,8.289857
<http://vocab.getty.edu/tgn/1064210>,Märstetten,,"""Märstetten""@de",,,,,,,,47.59338,9.06676
<http://vocab.getty.edu/tgn/1064335>,Romanshorn,,"""Romanshorn""@de",,,,,,,,47.56523,9.36572
<http://vocab.getty.edu/tgn/1064328>,Richterswil,,"""Richterswil""@de",,,,,,,,47.20548,8.70712
<http://vocab.getty.edu/tgn/1064389>,Schinznach Dorf,,,,,,,,,,47.4465,8.140887
<http://vocab.getty.edu/tgn/1064185>,Lenk,,,,,,,,,,46.458063,7.441356
<http://vocab.getty.edu/tgn/1064235>,Merishausen,,,,,,,,,,47.760278,8.608707
<http://vocab.getty.edu/tgn/1064200>,Littau,,,,,,,,,,47.050004,8.262739
<http://vocab.getty.edu/tgn/1064191>,Les Mosses,,,,,,,,,,46.4,7.116667
<http://vocab.getty.edu/tgn/1064363>,Saint-Ursanne,,,,,,,,,,47.36474,7.154356
<http://vocab.getty.edu/tgn/1064182>,Le Pont,,,,,,,,,,46.667969,6.327838
<http://vocab.getty.edu/tgn/1064387>,Schangnau,,,,,,,,,,46.82784,7.859875
<http://vocab.getty.edu/tgn/1064274>,Oberriet,,"""Oberriet""@de",,,,,,,,47.320883,9.568079
<http://vocab.getty.edu/tgn/1064354>,Saignelégier,,,,,,,,,,47.255435,6.994608
<http://vocab.getty.edu/tgn/1064312>,Rümlang,,,,,,,,,,47.451787,8.526777
<http://vocab.getty.edu/tgn/1064228>,Meilen,,,,,,,,,,47.270429,8.643675
<http://vocab.getty.edu/tgn/1064379>,Sattel,,,,,,,,,,47.082461,8.635646
<http://vocab.getty.edu/tgn/1064212>,Münchenbuchsee,,,,,,,,,,47.020946,7.448956
<http://vocab.getty.edu/tgn/1064390>,Schleitheim,,,,,,,,,,47.750261,8.481475
<http://vocab.getty.edu/tgn/1064270>,Oberdiessbach,,,,,,,,,,46.85,7.6167
<http://vocab.getty.edu/tgn/1064263>,Nidau,,,,,,,,,,47.129167,7.238464
<http://vocab.getty.edu/tgn/1064265>,Niederurnen,,"""Niederurnen""@de",,,,,,,,47.127074,9.057759
<http://vocab.getty.edu/tgn/1064277>,Oensingen,,,,,,,,,,47.286388,7.723051
<http://vocab.getty.edu/tgn/1064393>,Schwarzenburg,,,,,,,,,,46.818108,7.342084
<http://vocab.getty.edu/tgn/1064267>,Niederweningen,,,,,,,,,,47.502872,8.374084
<http://vocab.getty.edu/tgn/1064359>,Saint-Imier,,,,,,,,,,47.152195,6.995124
<http://vocab.getty.edu/tgn/1064205>,Lungern,,,,,,,,,,46.784245,8.160481
<http://vocab.getty.edu/tgn/1064282>,Onex,,,,"""Onex""@fr",,,,,,46.183961,6.102371
<http://vocab.getty.edu/tgn/1064273>,Oberried,,,,,,,,,,46.736271,7.959324
<http://vocab.getty.edu/tgn/1064227>,Mauensee,,,,,,,,,,47.168468,8.066174
<http://vocab.getty.edu/tgn/1064208>,Lyss,,,,,,,,,,47.077573,7.31162
<http://vocab.getty.edu/tgn/1064250>,Murgenthal,,,,,,,,,,47.270172,7.839468
<http://vocab.getty.edu/tgn/1064377>,Sargans,,,,,,,,,,47.05,9.4333
<http://vocab.getty.edu/tgn/1064283>,Opfikon,,,,,,,,,,47.432553,8.580231
<http://vocab.getty.edu/tgn/1064234>,Menziken,,,,,,,,,,47.242487,8.19047
<http://vocab.getty.edu/tgn/1064216>,Münsterlingen,,"""Münsterlingen""@de",,,,,,,,47.63197,9.23271
<http://vocab.getty.edu/tgn/1064193>,Les Verrières,,,,,,,,,,46.90698,6.469888
<http://vocab.getty.edu/tgn/1064298>,Piotta,,,"""Piotta""@it",,,,,,,46.514553,8.673848
<http://vocab.getty.edu/tgn/1064345>,Rue,,,,,,,,,,46.619332,6.822489
<http://vocab.getty.edu/tgn/1064264>,Niederbipp,,,,,,,,,,47.266129,7.694612
<http://vocab.getty.edu/tgn/1064313>,Rüti,,"""Rüti""@de",,,,,,,,47.26023,8.85499
<http://vocab.getty.edu/tgn/1064192>,Les Ponts-de-Martel,,,,,,,,,,46.9,6.6833
<http://vocab.getty.edu/tgn/1064238>,Mollis,,"""Mollis""@de",,,,,,,,47.088779,9.072424
<http://vocab.getty.edu/tgn/1064197>,Lichtensteig,,"""Lichtensteig""@de",,,,,,,,47.337551,9.084078
<http://vocab.getty.edu/tgn/1064373>,Sankt Margrethen,,"""Sankt Margrethen""@de",,,,,,,,47.45748,9.6255
<http://vocab.getty.edu/tgn/1064327>,Richisau,,,,,,,,,,47.021355,8.903918
<http://vocab.getty.edu/tgn/1064229>,Meiringen,,,,,,,,,,46.726776,8.183961
<http://vocab.getty.edu/tgn/1064301>,Ponte Tresa,,,"""Ponte Tresa""@it",,,,,,,45.970478,8.85833
<http://vocab.getty.edu/tgn/1064324>,Rheineck,,"""Rheineck""@de",,,,,,,,47.474492,9.583843
<http://vocab.getty.edu/tgn/1064314>,Rafz,,,,,,,,,,47.61259,8.539162
<http://vocab.getty.edu/tgn/1064299>,Plaffeien,,,,,,,,,,46.741977,7.286664
<http://vocab.getty.edu/tgn/1064181>,Le Noirmont,,,,,,,,,,47.225674,6.957303
<http://vocab.getty.edu/tgn/1064240>,Montbovon,,,,,,,,,,46.486073,7.043544
<http://vocab.getty.edu/tgn/1064237>,Meyrin,,,,"""Meyrin""@fr",,,,,,46.228102,6.070771
<http://vocab.getty.edu/tgn/1064356>,Saint-Blaise,,,,,,,,,,47.013233,6.984722
<http://vocab.getty.edu/tgn/1064348>,Saanen,,,,,,,,,,46.489557,7.259609
<http://vocab.getty.edu/tgn/1064318>,Regensdorf,,,,,,,,,,47.429855,8.465128
<http://vocab.getty.edu/tgn/1064217>,Mürren,,,,,,,,,,46.559437,7.892812
<http://vocab.getty.edu/tgn/1064320>,Reichenbach,,,,,,,,,,46.625415,7.693621
<http://vocab.getty.edu/tgn/1064241>,Montfaucon,,,,,,,,,,47.282119,7.05123
<http://vocab.getty.edu/tgn/1064295>,Pfaffnau,,,,,,,,,,47.227718,7.897186
<http://vocab.getty.edu/tgn/1064209>,Männedorf,,,,,,,,,,47.252851,8.690581
<http://vocab.getty.edu/tgn/1064287>,Osogna,,,"""Osogna""@it",,,,,,,46.310916,8.98712
<http://vocab.getty.edu/tgn/1064219>,Magglingen,,,,,,,,,,47.140612,7.215794
<http://vocab.getty.edu/tgn/1064369>,San Carlo,,,"""San Carlo""@it",,,,,,,46.409634,8.527657
<http://vocab.getty.edu/tgn/1064199>,Linthal,,,,,,,,,,46.921271,8.997992
<http://vocab.getty.edu/tgn/1064278>,Oftringen,,,,,,,,,,47.31382,7.925327
<http://vocab.getty.edu/tgn/1064188>,Les Diablerets,,,,"""Les Diablerets""@fr",,,,,,46.351215,7.161667
<http://vocab.getty.edu/tgn/1064305>,Posieux,,,,,,,,,,46.7667,7.1
<http://vocab.getty.edu/tgn/1064213>,Münchenstein,,,,,,,,,,47.510513,7.617668
<http://vocab.getty.edu/tgn/1064311>,Röthenbach,,,,,,,,,,46.854249,7.742508
<http://vocab.getty.edu/tgn/1064271>,Oberengstringen,,,,,,,,,,47.410151,8.460978
<http://vocab.getty.edu/tgn/1064347>,Sörenberg,,,,,,,,,,46.822163,8.037376
<http://vocab.getty.edu/tgn/1064249>,Muotathal,,,,,,,,,,46.976761,8.76499
<http://vocab.getty.edu/tgn/1046162>,Positano,,,,,,,,,,40.633333,14.483333
<http://vocab.getty.edu/tgn/1044085>,Castiglione della Pescaia,,,,,,,,,,42.766667,10.883333
<http://vocab.getty.edu/tgn/1039568>,Bad Herrenalb,,,,,,,,,,48.8,8.433333
<http://vocab.getty.edu/tgn/1039800>,Kaisersesch,,,,,,,,,,50.233333,7.15
<http://vocab.getty.edu/tgn/1038183>,Altenmarkt,,,,,,,,,,48,12.533333
<http://vocab.getty.edu/tgn/1031656>,Épinay-sous-Sénart,,,,,,,,,,48.689701,2.511863
<http://vocab.getty.edu/tgn/1041242>,Sinzig,,,,,,,,,,50.55,7.25
<http://vocab.getty.edu/tgn/1046271>,Rho,,,,,,,,,,45.533333,9.033333
<http://vocab.getty.edu/tgn/1031555>,Seinäjoki,,,,,,,,,,62.75,22.9167
<http://vocab.getty.edu/tgn/1045628>,Muggiò,,,,,,,,,,45.583333,9.216667
<http://vocab.getty.edu/tgn/1042033>,Itháki,"""Ithaca""@en",,,,,,,,,38.360278,20.716111
<http://vocab.getty.edu/tgn/1031405>,Kuortane,,,,,,,,,,62.8,23.5
<http://vocab.getty.edu/tgn/1043764>,Camogli,,,,,,,,,,44.35,9.15
<http://vocab.getty.edu/tgn/1044500>,Domodossola,,,,,,,,,,46.116667,8.283333
<http://vocab.getty.edu/tgn/1041165>,Schwarzenbach am Wald,,,,,,,,,,50.2833,11.6167
<http://vocab.getty.edu/tgn/1042072>,Khíos,"""Chios""@en",,,,,,,,,38.367778,26.135833
<http://vocab.getty.edu/tgn/1032295>,Brétigny-sur-Orge,"""Brétigny-sur-Orge""@en",,,,,,,,,48.61892,2.309158
<http://vocab.getty.edu/tgn/1036356>,Apolda,,,,,,,,,,51.016667,11.5
<http://vocab.getty.edu/tgn/1045174>,Madonna di Campiglio,,,,,,,,,,46.233333,10.816667
<http://vocab.getty.edu/tgn/1045169>,Macugnaga,,,,,,,,,,45.966667,7.966667
<http://vocab.getty.edu/tgn/1044346>,Comeglians,,,,,,,,,,46.516667,12.86
<http://vocab.getty.edu/tgn/1046206>,Procida,,,,,,,,,,40.766667,14.033333
<http://vocab.getty.edu/tgn/1046135>,Port'Ercole,,,,,,,,,,42.383333,11.2
<http://vocab.getty.edu/tgn/1031474>,Nokia,,,,,,,,,,61.4667,23.5
<http://vocab.getty.edu/tgn/1036448>,Bernau bei Berlin,,,,,,,,,,52.6667,13.5833
<http://vocab.getty.edu/tgn/1038147>,Alken,,,,,,,,,,50.25,7.45
<http://vocab.getty.edu/tgn/1038166>,Altdorf,,,,,,,,,,49.3875,11.357222
<http://vocab.getty.edu/tgn/1043457>,Bellagio,,,,,,,,,,45.983333,9.25
<http://vocab.getty.edu/tgn/1043110>,Adro,,,,,,,,,,45.616667,9.95
<http://vocab.getty.edu/tgn/1039144>,Friedrichsthal,,,,,,,,,,49.316667,7.1
<http://vocab.getty.edu/tgn/1032522>,Châtillon,,,,,,,,,,48.802396,2.293464
<http://vocab.getty.edu/tgn/1032687>,Clamart,,,,,,,,,,48.802987,2.266917
<http://vocab.getty.edu/tgn/1032999>,Eaubonne,,,,,,,,,,48.997124,2.282494
<http://vocab.getty.edu/tgn/1031809>,Antrain,,,,,,,,,,48.460308,-1.483536
<http://vocab.getty.edu/tgn/1046205>,Procchio,,,,,,,,,,42.783333,10.25
<http://vocab.getty.edu/tgn/1031312>,Imatra,,,,,,,,,,61.2333,28.8333
<http://vocab.getty.edu/tgn/1032050>,Beaucourt,,,,,,,,,,47.489902,6.924071
<http://vocab.getty.edu/tgn/1044187>,Cesate,,,,,,,,,,45.6,9.0833
<http://vocab.getty.edu/tgn/1041956>,Akharnai,,,,,,,,,,38.083333,23.733333
<http://vocab.getty.edu/tgn/1038251>,Attendorn,,,,,,,,,,51.116667,7.9
<http://vocab.getty.edu/tgn/1043765>,Campagna,,,,,,,,,,40.666667,15.1
<http://vocab.getty.edu/tgn/1031490>,Paimio,,,,,,,,,,60.45,22.7
<http://vocab.getty.edu/tgn/1032405>,Cancale,,,,,,,,,,48.676011,-1.852306
<http://vocab.getty.edu/tgn/1031548>,Säynätsalo,,,,,,,,,,62.15,25.7
<http://vocab.getty.edu/tgn/1040322>,Merzig,,,,,,,,,,49.45,6.633333
<http://vocab.getty.edu/tgn/1038420>,Barmstedt,,,,,,,,,,53.783333,9.766667
<http://vocab.getty.edu/tgn/1045403>,Misinto,,,,,,,,,,45.65,9.083333
<http://vocab.getty.edu/tgn/1031500>,Seinäjoki,,,,,,,,,,62.5667,23.0833
<http://vocab.getty.edu/tgn/1036449>,Bernburg,,,,,,,,,,51.8,11.733333
<http://vocab.getty.edu/tgn/1046080>,Pompei,,,,,,,,,,40.75,14.5
<http://vocab.getty.edu/tgn/1032495>,Châteaubriant,,,,,,,,,,47.717,-1.379335
<http://vocab.getty.edu/tgn/1044429>,Crevola d'Ossola,,,,,,,,,,46.15,8.3
<http://vocab.getty.edu/tgn/1045665>,Nichelino,,,,,,,,,,44.983333,7.633333
<http://vocab.getty.edu/tgn/1032431>,Carros,,,,,,,,,,43.789413,7.18395
<http://vocab.getty.edu/tgn/1031799>,Annet-sur-Marne,,,,,,,,,,48.926692,2.719586
<http://vocab.getty.edu/tgn/1033432>,Herblay,,,,,,,,,,48.989935,2.169902
<http://vocab.getty.edu/tgn/1031485>,Oulu,,,,,,,,,,65,25.4333
<http://vocab.getty.edu/tgn/1032951>,Domont,,,,,,,,,,49.027821,2.326384
<http://vocab.getty.edu/tgn/1042203>,Sérifos,,,,,,,,,"""Sérifos""@el-latn",37.15,24.5
<http://vocab.getty.edu/tgn/1045746>,Omegna,,,,,,,,,,45.883333,8.4
<http://vocab.getty.edu/tgn/1043789>,Campodolcino,,,,,,,,,,46.4,9.35
<http://vocab.getty.edu/tgn/1032664>,Chevilly-Larue,,,,,,,,,,48.76476,2.350297
<http://vocab.getty.edu/tgn/1044294>,Cles,,,,,,,,,,46.366667,11.033333
<http://vocab.getty.edu/tgn/1046093>,Ponte San Pietro,,,,,,,,,,45.7,9.583333
<http://vocab.getty.edu/tgn/1042068>,Kavála,,,,,,,,,"""Kavála""@el-latn",40.939722,24.401944
<http://vocab.getty.edu/tgn/1042794>,Enniscorthy,"""Enniscorthy""@en",,,,,,,,,52.500833,-6.557778
<http://vocab.getty.edu/tgn/1044618>,Fiuggi,,,,,,,,,,41.8,13.216667
<http://vocab.getty.edu/tgn/1038365>,Bad Rappenau,,,,,,,,,,49.240556,9.1025
<http://vocab.getty.edu/tgn/1045256>,Marina di Campo,,,,,,,,,,42.733333,10.233333
<http://vocab.getty.edu/tgn/1043863>,Capri,,,,,,,,,,40.55,14.233333
<http://vocab.getty.edu/tgn/1044226>,Chiusa,,"""Klausen""@de","""Chiusa""@it",,,,,,,46.633333,11.566667
<http://vocab.getty.edu/tgn/1043559>,Boretto,,,,,,,,,,44.9,10.55
<http://vocab.getty.edu/tgn/1046085>,Pont-Saint-Martin,,,,,,,,,,45.6,7.8
<http://vocab.getty.edu/tgn/1043725>,Calatafimi,,,,,,,,,,37.916667,12.866667
<http://vocab.getty.edu/tgn/1031550>,Salo,,,,,,,,,,60.3833,23.1667
<http://vocab.getty.edu/tgn/1043749>,Caluso,,,,,,,,,,45.3,7.883333
<http://vocab.getty.edu/tgn/1041929>,Gibraltar,,,,,,,,,,36.15,-5.35
<http://vocab.getty.edu/tgn/1038187>,Altenvoërde,,,,,,,,,,51.3,7.3833
<http://vocab.getty.edu/tgn/1042755>,Donegal,"""Donegal""@en",,,,,,,,,54.65,-8.116667
<http://vocab.getty.edu/tgn/1032215>,Bonneuil-sur-Marne,,,,,,,,,,48.769502,2.479295
<http://vocab.getty.edu/tgn/1031900>,Audierne,,,,,,,,,,48.023475,-4.542078
<http://vocab.getty.edu/tgn/1043827>,Cannero Riviera,,,,,,,,,,46.016667,8.683333
<http://vocab.getty.edu/tgn/1042201>,Sámos,,,,,,,,,"""Sámos""@el-latn",37.757222,26.976944
<http://vocab.getty.edu/tgn/1036393>,Bad Langensalza,,,,,,,,,,51.1,10.65
<http://vocab.getty.edu/tgn/1045262>,Marina di Massa,,,,,,,,,,44,10.1
<http://vocab.getty.edu/tgn/1031395>,Kotka,,,,,,,,,,60.4333,26.9167
<http://vocab.getty.edu/tgn/1038561>,Blieskastel,,,,,,,,,,49.233333,7.25
<http://vocab.getty.edu/tgn/1042055>,Kallithéa,,,,,,,,,"""Kallithéa""@el-latn",37.95,23.7
<http://vocab.getty.edu/tgn/1043264>,Arco,,,,,,,,,,45.916667,10.883333
<http://vocab.getty.edu/tgn/1046154>,Portofino,,,,,,,,,,44.3,9.2
<http://vocab.getty.edu/tgn/1039918>,Konz,,,,,,,,,,49.7,6.583333
<http://vocab.getty.edu/tgn/1032186>,Bobigny,,,,,,,,,,48.909825,2.45012
<http://vocab.getty.edu/tgn/1044499>,Domegge di Cadore,,,,,,,,,,46.460278,12.417222
<http://vocab.getty.edu/tgn/1039309>,Grünstadt,,,,,,,,,,49.569167,8.168056
<http://vocab.getty.edu/tgn/1045827>,Paesana,,,,,,,,,,44.683333,7.266667
<http://vocab.getty.edu/tgn/1044679>,Forte dei Marmi,,,,,,,,,,43.95,10.166667
<http://vocab.getty.edu/tgn/1039869>,Kirchen,,,,,,,,,,50.8,7.883333
<http://vocab.getty.edu/tgn/1039957>,Kusel,,,,,,,,,,49.55,7.4
<http://vocab.getty.edu/tgn/1033185>,Franconville,,,,,,,,,,48.983333,2.233333
<http://vocab.getty.edu/tgn/1042081>,Kifisiá,,,,,,,,,"""Kifisiá""@el-latn",38.066667,23.816667
<http://vocab.getty.edu/tgn/7007874>,Diest,,,,,,,,,,50.983333,5.05
<http://vocab.getty.edu/tgn/7008082>,Highland,"""Highland""@en",,,,,,,,,57.6667,-5
<http://vocab.getty.edu/tgn/7007756>,Poznań,,,,,,,,,,52.4167,16.8833
<http://vocab.getty.edu/tgn/7008401>,Pontevedra,,,,,,,,,,42.433333,-8.633333
<http://vocab.getty.edu/tgn/7007740>,Malbork,,,,,,,,,,54.0333,19.05
<http://vocab.getty.edu/tgn/7008114>,Cheshire,,,,,,,,,,53,-2.6833
<http://vocab.getty.edu/tgn/7008813>,Zaragoza,,,,,,,,,,41.633333,-0.883333
<http://vocab.getty.edu/tgn/7008300>,Eraclea,,,,,,,,,,37.4,13.2833
<http://vocab.getty.edu/tgn/7008285>,Caprarola,,,,,,,,,,42.316667,12.233333
<http://vocab.getty.edu/tgn/7007850>,Calabria,,,"""Calabria""@it",,,,,,,39,16.5
<http://vocab.getty.edu/tgn/7008546>,Genova,"""Genoa""@en",,,"""Gênes""@fr",,,,,,44.416667,8.95
<http://vocab.getty.edu/tgn/7008750>,Wrexham,"""Wrexham""@en",,,,,,,,,53.05,-3
<http://vocab.getty.edu/tgn/7007868>,Bruxelles,"""Brussels""@en","""Brüssel""@de",,"""Bruxelles""@fr",,,,,,50.833333,4.333333
<http://vocab.getty.edu/tgn/7008625>,Santa Cruz de Tenerife,,,,,,,,,,28.45,-16.233333
<http://vocab.getty.edu/tgn/7008134>,West Sussex,"""West Sussex""@en",,,,,,,,,51,-0.416667
<http://vocab.getty.edu/tgn/7007942>,Málaga,,,,,,,,,,36.716667,-4.416667
<http://vocab.getty.edu/tgn/7008639>,Santander,,,,,,,,,,43.4667,-4.15
<http://vocab.getty.edu/tgn/7008160>,Norfolk,"""Norfolk""@en",,,,,,,,,52.666667,1
<http://vocab.getty.edu/tgn/7008911>,Asturias,,,,"""Asturies""@fr",,,,,,43.3667,-5.8333
<http://vocab.getty.edu/tgn/7008539>,Conwy,"""Conwy""@en",,,,,,,,,53.283333,-3.833333
<http://vocab.getty.edu/tgn/7008180>,Wiltshire,"""Wiltshire""@en",,,,,,,,,51.25,-1.916667
<http://vocab.getty.edu/tgn/7008636>,Annemasse,,,,,,,,,,46.186519,6.241324
<http://vocab.getty.edu/tgn/7008076>,Fife,"""Fife""@en",,,,,,,,,56.333333,-3
<http://vocab.getty.edu/tgn/7007866>,Braine-le-Comte,,,,,,,,,,50.609793,4.146582
<http://vocab.getty.edu/tgn/7007887>,Gent,"""Ghent""@en","""Gent""@de",,"""Gand""@fr",,,,,,51.05,3.716667
<http://vocab.getty.edu/tgn/7008005>,Fontainebleau,,,,,,,,,,48.405367,2.700199
<http://vocab.getty.edu/tgn/7008547>,Buckley,"""Buckley""@en",,,,,,,,,53.166667,-3.083333
<http://vocab.getty.edu/tgn/7007877>,"Hainaut, Province de",,,,"""Hainaut, Province de""@fr",,,,,,50.5,3.833333
<http://vocab.getty.edu/tgn/7008742>,Cardiff,"""Cardiff""@en",,,,,,,,,51.5,-3.2
<http://vocab.getty.edu/tgn/7007869>,Charleroi,,,,"""Charleroi""@fr",,,,,,50.416667,4.433333
<http://vocab.getty.edu/tgn/7007732>,Lublin,,,,,,,,,,51.3,22.5167
<http://vocab.getty.edu/tgn/7008166>,North Yorkshire,"""North Yorkshire""@en",,,,,,,,,54.166667,-1.5
<http://vocab.getty.edu/tgn/7008671>,Aubusson,,,,,,,,,,45.95394,2.168107
<http://vocab.getty.edu/tgn/7007840>,Zamość,,,,,,,,,,50.7167,23.25
<http://vocab.getty.edu/tgn/7008673>,Audincourt,,,,,,,,,,47.483271,6.853407
<http://vocab.getty.edu/tgn/7008799>,Avignon,,,,,,,,,,43.945404,4.810226
<http://vocab.getty.edu/tgn/7008132>,Gloucestershire,"""Gloucestershire""@en",,,,,,,,,51.833333,-2.166667
<http://vocab.getty.edu/tgn/7008473>,Merthyr Tydfil,"""Merthyr Tydfil""@en",,,,,,,,,51.75,-3.383333
<http://vocab.getty.edu/tgn/7007856>,Antwerpen,"""Antwerp""@en","""Antwerpen""@de",,"""Anvers""@fr",,,,,,51.213886,4.401514
<http://vocab.getty.edu/tgn/7007909>,Laguardia,,,,,,,,,,42.554605,-2.585281
<http://vocab.getty.edu/tgn/7008591>,United Kingdom,"""United Kingdom""@en",,,"""Royaume-Uni de Grande-Bretagne et d'Irlande du Nord""@fr",,,"""Соединенное Королевство Великобритании и Северной Ирландии""@ru","""Reino Unido de Gran Bretaña e Irlanda del Norte""@es",,54,-4.5
<http://vocab.getty.edu/tgn/7008117>,Cumbria,"""Cumbria""@en",,,,,,,,,54.5167,-3.0167
<http://vocab.getty.edu/tgn/7008116>,Cornwall,"""Cornwall""@en",,,,,,,,,50.416667,-4.75
<http://vocab.getty.edu/tgn/7008912>,Lleida,,,,,,,,,,42,1.166
<http://vocab.getty.edu/tgn/7007780>,Guipúzcoa,,,,,,,,,,43.166667,-2.166667
<http://vocab.getty.edu/tgn/7008529>,Welshpool,"""Welshpool""@en",,,,,,,,,52.666667,-3.133333
<http://vocab.getty.edu/tgn/7008516>,Emilia-Romagna,,,"""Emilia-Romagna""@it",,,,,,,44.75,11
<http://vocab.getty.edu/tgn/7008646>,Arc-et-Senans,,,,,,,,,,47.031274,5.770274
<http://vocab.getty.edu/tgn/7007775>,Guadix,,,,,,,,,,37.3,-3.133333
<http://vocab.getty.edu/tgn/7008320>,Blois,,,,,,,,,,47.594322,1.329122
<http://vocab.getty.edu/tgn/7008775>,Arles,,,,,,,,,,43.681659,4.636331
<http://vocab.getty.edu/tgn/7008136>,Greater London,"""Greater London""@en",,,,,,,,,51.5,-0.1667
<http://vocab.getty.edu/tgn/7007752>,Pelplin,,,,,,,,,,53.9,18.6667
<http://vocab.getty.edu/tgn/7008209>,Caen,,,,,,,,,,49.197188,-0.326822
<http://vocab.getty.edu/tgn/7008153>,Kent,"""Kent""@en",,,,,,,,,51.166667,0.666667
<http://vocab.getty.edu/tgn/7008233>,Pamplona,,,,,,,,"""Pamplona""@es",,42.816667,-1.633333
<http://vocab.getty.edu/tgn/7008356>,Besançon,,,,,,,,,,47.248778,6.018152
<http://vocab.getty.edu/tgn/7008143>,Herefordshire,"""Herefordshire""@en",,,,,,,,,52.15,-2.5
<http://vocab.getty.edu/tgn/7008507>,Brynmawr,"""Brynmawr""@en",,,,,,,,,51.8,-3.183333
<http://vocab.getty.edu/tgn/7007867>,Brugge,"""Bruges""@en","""Brügge""@de",,"""Bruges""@fr",,,,,,51.210933,3.225971
<http://vocab.getty.edu/tgn/7008175>,Surrey,"""Surrey""@en",,,,,,,,,51.2,-0.05
<http://vocab.getty.edu/tgn/7008118>,Derbyshire,"""Derbyshire""@en",,,,,,,,,53.0167,-1.5333
<http://vocab.getty.edu/tgn/7008178>,Warwickshire,"""Warwickshire""@en",,,,,,,,,52.2,-1.6167
<http://vocab.getty.edu/tgn/7008104>,Buckinghamshire,"""Buckinghamshire""@en",,,,,,,,,51.75,-0.75
<http://vocab.getty.edu/tgn/7008645>,Arcachon,,,,,,,,,,44.659252,-1.169382
<http://vocab.getty.edu/tgn/7007789>,Lérida,,,,,,,,,,41.616737,0.622183
<http://vocab.getty.edu/tgn/7007750>,Olešno,,,,,,,,,,50.85,18.4333
<http://vocab.getty.edu/tgn/7007715>,Gliwice,,,,,,,,,,50.3333,18.6667
<http://vocab.getty.edu/tgn/7008610>,San Sebastián,,,,,,,,,,43.316667,-1.983333
<http://vocab.getty.edu/tgn/7008647>,Arcueil,,,,,,,,,,48.799931,2.332555
<http://vocab.getty.edu/tgn/7008036>,Écouen,,,,,,,,,,49.020621,2.383093
<http://vocab.getty.edu/tgn/7008765>,Cannes,,,,,,,,,,43.549744,6.9943
<http://vocab.getty.edu/tgn/7008050>,Powys,"""Powys""@en",,,,,,,,,52.25,-3.3333
<http://vocab.getty.edu/tgn/7007833>,Warszawa,"""Warsaw""@en",,,,,,,,,52.25,21
<http://vocab.getty.edu/tgn/7008129>,East Sussex,"""East Sussex""@en",,,,,,,,,50.9167,0.2167
<http://vocab.getty.edu/tgn/7008938>,Barbizon,,,,,,,,,,48.443464,2.60313
<http://vocab.getty.edu/tgn/7008131>,Essex,"""Essex""@en",,,,,,,,,51.5833,0.55
<http://vocab.getty.edu/tgn/7008103>,Bedfordshire,"""Bedfordshire""@en",,,,,,,,,52,-0.5
<http://vocab.getty.edu/tgn/7008221>,Beaune,,,,,,,,,,47.02441,4.838925
<http://vocab.getty.edu/tgn/7007949>,Leuven,"""Louvain""@en","""Löwen""@de",,"""Louvain""@fr",,,,,,50.883333,4.7
<http://vocab.getty.edu/tgn/7008369>,Aigues-Mortes,,,,,,,,,,43.569521,4.195468
<http://vocab.getty.edu/tgn/7007809>,Szczecin,,,,,,,,,,53.4167,14.5333
<http://vocab.getty.edu/tgn/7008168>,Oxfordshire,,,,,,,,,,51.75,-1.1667
<http://vocab.getty.edu/tgn/7007936>,Knokke-Heist,,,,,,,,,,51.351133,3.287439
<http://vocab.getty.edu/tgn/7008532>,Anglesey,,,,,,,,,,53.283333,-4.333333
<http://vocab.getty.edu/tgn/7007818>,Tychy,,,,,,,,,,50.1333,18.9333
<http://vocab.getty.edu/tgn/7008232>,Palma de Mallorca,,,,,,,,,,39.566667,2.65
<http://vocab.getty.edu/tgn/7008654>,Argentan,,,,,,,,,,48.745175,-0.018062
<http://vocab.getty.edu/tgn/7008676>,Sevilla,"""Seville""@en",,,,,,,,,37.377222,-5.986944
<http://vocab.getty.edu/tgn/7008480>,Angers,,,,,,,,,,47.473806,-0.54774
<http://vocab.getty.edu/tgn/7008139>,Hampshire,"""Hampshire""@en",,,,,,,,,51.083333,-1.166667
<http://vocab.getty.edu/tgn/7007981>,Châtenay-Malabry,,,,,,,,,,48.765068,2.266547
<http://vocab.getty.edu/tgn/7008719>,Toledo,,,,,,,,,,39.866667,-4.016667
<http://vocab.getty.edu/tgn/7008154>,Lancashire,,,,,,,,,,53.7,-2.6667
<http://vocab.getty.edu/tgn/7008145>,Hertfordshire,"""Hertfordshire""@en",,,,,,,,,51.833333,-0.25
<http://vocab.getty.edu/tgn/7008670>,Aubervilliers,,,,,,,,,,48.916667,2.383333
<http://vocab.getty.edu/tgn/7008019>,Argenteuil,,,,,,,,,,48.939396,2.2367
<http://vocab.getty.edu/tgn/7008258>,Brest,,,,,,,,,,48.390756,-4.486165
<http://vocab.getty.edu/tgn/7007786>,Ibiza,,,,,,,,,,38.9,1.433333
<http://vocab.getty.edu/tgn/7010570>,Beauvais,,,,,,,,,,49.433333,2.083333
<http://vocab.getty.edu/tgn/7010514>,Sopron,,,,,,,,,,47.6667,16.5833
<http://vocab.getty.edu/tgn/7009860>,Solna,,,,,,,,,,59.3667,17.9833
<http://vocab.getty.edu/tgn/7009960>,Tampere,,,,,,,,,,61.5,23.75
<http://vocab.getty.edu/tgn/7010279>,Ambleside,"""Ambleside""@en",,,,,,,,,54.416667,-2.966667
<http://vocab.getty.edu/tgn/7010282>,Serpukhov,,,,,,,,,,54.8833,37.4167
<http://vocab.getty.edu/tgn/7009954>,Göteborg,"""Gothenburg""@en",,,,,,,,,57.7167,11.9667
<http://vocab.getty.edu/tgn/7008991>,Bourg-la-Reine,,,,,,,,,,48.778882,2.317807
<http://vocab.getty.edu/tgn/7010398>,Cori,,,,,,,,,,41.65,12.916667
<http://vocab.getty.edu/tgn/7010874>,Cambridge,"""Cambridge""@en",,,,,,,,,52.2,0.116667
<http://vocab.getty.edu/tgn/7010190>,Magnitogorsk,,,,,,,,,,53.45,59.0667
<http://vocab.getty.edu/tgn/7009899>,Scalloway,"""Scalloway""@en",,,,,,,,,60.133333,-1.3
<http://vocab.getty.edu/tgn/7010689>,Bakewell,,,,,,,,,,53.2,-1.666667
<http://vocab.getty.edu/tgn/7010420>,Madrid,,,,,,,,,,40.4,-3.6833
<http://vocab.getty.edu/tgn/7010380>,Puglia,"""Apulia""@en",,"""Puglia""@it",,,,,,,41.25,16.25
<http://vocab.getty.edu/tgn/7010280>,Saratov,,,,,,,,,,51.5667,46.0333
<http://vocab.getty.edu/tgn/7009065>,Créteil,,,,,,,,,,48.792661,2.465694
<http://vocab.getty.edu/tgn/7010666>,Plovdiv,,,,,,,,,,42.1333,24.75
<http://vocab.getty.edu/tgn/7010734>,Kórinthos,"""Corinth""@en",,,,,,,,,37.916667,22.883333
<http://vocab.getty.edu/tgn/7009550>,Queensferry,"""Queensferry""@en",,,,,,,,,55.983333,-3.4
<http://vocab.getty.edu/tgn/7010442>,Leeds,"""Leeds""@en-gb",,,,,,,,,53.8,-1.583333
<http://vocab.getty.edu/tgn/7009573>,Oslo,,,,,,,,,,59.9333,10.75
<http://vocab.getty.edu/tgn/7010598>,Port Sunlight,"""Port Sunlight""@en",,,,,,,,,53.333333,-2.983333
<http://vocab.getty.edu/tgn/7010427>,Preston,"""Preston""@en",,,,,,,,,53.766667,-2.716667
<http://vocab.getty.edu/tgn/7009880>,Helsinki,,,,,,,,,,60.1333,25
<http://vocab.getty.edu/tgn/7009898>,Sandwick,"""Sandwick""@en",,,,,,,,,60,-1.25
<http://vocab.getty.edu/tgn/7010051>,Middlesbrough,"""Middlesbrough""@en",,,,,,,,,54.572778,-1.162778
<http://vocab.getty.edu/tgn/7009565>,Modena,,,"""Modena""@it",,,,,,,44.666667,10.916667
<http://vocab.getty.edu/tgn/7010031>,Värmland,,,,,,,,,,59.75,13.25
<http://vocab.getty.edu/tgn/7010880>,Kastoría,,,,,,,,,,40.516667,21.266667
<http://vocab.getty.edu/tgn/7010547>,Buda,,,,,,,,,,47.5,19.0333
<http://vocab.getty.edu/tgn/7010300>,Tashkent,"""Tashkent""@en",,,,,,,,,41.316,69.25
<http://vocab.getty.edu/tgn/7010534>,Bolton,"""Bolton""@en",,,,,,,,,53.583333,-2.433333
<http://vocab.getty.edu/tgn/7009204>,Gif-sur-Yvette,,,,,,,,,,48.683333,2.133333
<http://vocab.getty.edu/tgn/7010597>,Liverpool,"""Liverpool""@en",,,,,,,,,53.416667,-3
<http://vocab.getty.edu/tgn/7009837>,Lund,,,,,,,,,,55.7,13.1667
<http://vocab.getty.edu/tgn/7009761>,Visby,,,,,,,,,,57.6167,18.3333
<http://vocab.getty.edu/tgn/7010360>,Espoo,,,,,,,,,,60.1667,24.7
<http://vocab.getty.edu/tgn/7010843>,Khaniá,,,,,,,,,"""Khaniá""@el-latn",35.512222,24.015556
<http://vocab.getty.edu/tgn/7010692>,Sheffield,"""Sheffield""@en",,,,,,,,,53.366667,-1.5
<http://vocab.getty.edu/tgn/7010776>,Braga,,,,,,,,,,41.56252,-8.296611
<http://vocab.getty.edu/tgn/7010542>,Győr,,,,,"""Győr""@hu",,,,,47.687281,17.637616
<http://vocab.getty.edu/tgn/7010684>,Derby,"""Derby""@en-gb",,,,,,,,,52.933333,-1.5
<http://vocab.getty.edu/tgn/7009596>,Trondheim,,,,,,,,,,63.2,9.75
<http://vocab.getty.edu/tgn/7010041>,Clichy,,,,,,,,,,48.90018,2.309525
<http://vocab.getty.edu/tgn/7009546>,Edinburgh,"""Edinburgh""@en",,,,,,,,,55.95,-3.2
<http://vocab.getty.edu/tgn/7009604>,País Vasco,"""Basque Provinces""@en",,,,,,,"""País Vasco""@es",,43,-2.5
<http://vocab.getty.edu/tgn/7009852>,Sigtuna,,,,,,,,,,59.6,17.7333
<http://vocab.getty.edu/tgn/7010413>,Madrid,,,,,,,,,,40.4,-3.683333
<http://vocab.getty.edu/tgn/7009120>,León,,,,,,,,,,42.6,-5.566667
<http://vocab.getty.edu/tgn/7010025>,Verucchio,,,,,,,,,,44.007778,12.433333
<http://vocab.getty.edu/tgn/7010097>,Vyborg,,,,,,,,,,60.75,28.6833
<http://vocab.getty.edu/tgn/7010559>,Hale,,,,,,,,,,53.3667,-2.3333
<http://vocab.getty.edu/tgn/7010770>,Dhelfoi,"""Delphi""@en",,,,,,,,"""Dhelfoí""@el-latn",38.483333,22.5
<http://vocab.getty.edu/tgn/7009882>,Jyväskylä,,,,,,,,,,62.2667,25.8333
<http://vocab.getty.edu/tgn/7010370>,Kingston-Upon-Hull,,,,,,,,,,53.716667,-0.333333
<http://vocab.getty.edu/tgn/7008963>,Boulogne-Billancourt,,,,,,,,,,48.835684,2.247342
<http://vocab.getty.edu/tgn/7008953>,Biot,,,,,,,,,,43.627234,7.096447
<http://vocab.getty.edu/tgn/7010775>,Braga,,,,,,,,,,41.550323,-8.420052
<http://vocab.getty.edu/tgn/7010477>,Manchester,"""Manchester""@en",,,,,,,,,53.5,-2.216667
<http://vocab.getty.edu/tgn/7010460>,Halifax,"""Halifax""@en",,,,,,,,,53.716667,-1.85
<http://vocab.getty.edu/tgn/7008992>,Briançon,,,,,,,,,,44.900465,6.638075
<http://vocab.getty.edu/tgn/7009041>,Cholet,,,,,,,,,,47.060836,-0.875481
<http://vocab.getty.edu/tgn/7009172>,Évry,,,,,,,,,,48.632804,2.440492
<http://vocab.getty.edu/tgn/7009153>,Drancy,,,,,,,,,,48.925785,2.445327
<http://vocab.getty.edu/tgn/7009161>,Oradea,,,,,,,,,,47.05,21.9167
<http://vocab.getty.edu/tgn/7009941>,Helsingborg,,,,,,,,,,56.0833,12.75
<http://vocab.getty.edu/tgn/7010786>,Aix-en-Provence,,,,,,,,,,43.528695,5.448791
<http://vocab.getty.edu/tgn/7009861>,Stockholm,,,,,,,,,,59.3333,18.0833
<http://vocab.getty.edu/tgn/7009977>,Sofiya,"""Sofia""@en",,,,,,,,,42.6667,23.3
<http://vocab.getty.edu/tgn/7010273>,Sankt-Peterburg,"""Saint Petersburg""@en",,,,,,,,,59.8833,30.25
<http://vocab.getty.edu/tgn/7009907>,Orkney,"""Orkney""@en",,,,,,,,,59,-3
<http://vocab.getty.edu/tgn/7010171>,Kiev,"""Kiev""@en",,,,,,,,,50.4333,30.5167
<http://vocab.getty.edu/tgn/7010417>,Las Palmas de Gran Canaria,,,,,,,,,,28.1,-15.416667
<http://vocab.getty.edu/tgn/7009839>,Malmö,,,,,,,,,,55.5833,13
<http://vocab.getty.edu/tgn/7009760>,Toscana,"""Tuscany""@en",,"""Toscana""@it",,,,,,,43.4167,11
<http://vocab.getty.edu/tgn/7010267>,Riga,,,,,,,,,,56.6667,106.1667
<http://vocab.getty.edu/tgn/7010871>,Kos,,,,,,,,,"""Kos""@el-latn",36.893333,27.288889
<http://vocab.getty.edu/tgn/7009051>,Concarneau,,,,,,,,,,47.875019,-3.922449
<http://vocab.getty.edu/tgn/7009867>,Uppsala,,,,,,,,,,59.9167,17.6333
<http://vocab.getty.edu/tgn/7009878>,Hämeenlinna,,,,,,,,,,61,24.4167
<http://vocab.getty.edu/tgn/7009825>,Jönköping,,,,,,,,,,57.75,14.1667
<http://vocab.getty.edu/tgn/7009542>,Haddington,"""Haddington""@en",,,,,,,,,55.933333,-2.766667
<http://vocab.getty.edu/tgn/7009821>,Härnösand,,,,,,,,,,62.6167,17.9167
<http://vocab.getty.edu/tgn/7009864>,Trollhättan,,,,,,,,,,58.2833,12.3333
<http://vocab.getty.edu/tgn/7009890>,Noormarkku,,,,,,,,,,61.5833,21.8333
<http://vocab.getty.edu/tgn/7009580>,Kongsberg,,,,,,,,,,59.7,9.65
<http://vocab.getty.edu/tgn/7009195>,Garches,,,,,,,,,,48.842257,2.182317
<http://vocab.getty.edu/tgn/7009242>,Ivry-sur-Seine,,,,,,,,,,48.81568,2.384868
<http://vocab.getty.edu/tgn/7010389>,Clitheroe,"""Clitheroe""@en",,,,,,,,,53.866667,-2.4
<http://vocab.getty.edu/tgn/7010049>,Stockton-on-Tees,"""Stockton-on-Tees""@en",,,,,,,,,54.583333,-1.416667
<http://vocab.getty.edu/tgn/7010506>,Pécs,,,,,,,,,,46.0667,18.25
<http://vocab.getty.edu/tgn/7008980>,Bagneux,,,,,,,,,,48.795645,2.307962
<http://vocab.getty.edu/tgn/7010249>,Perm,,,,,,,,,,58.0167,56.1667
<http://vocab.getty.edu/tgn/7010642>,Runcorn,"""Runcorn""@en",,,,,,,,,53.333333,-2.75
<http://vocab.getty.edu/tgn/7010879>,Iráklion,,,,,,,,,"""Iráklion""@el-latn",35.325,25.130556
<http://vocab.getty.edu/tgn/7010788>,Faistós,,,,,,,,,"""Faistós""@el-latn",35.051494,24.8144
<http://vocab.getty.edu/tgn/7009962>,Turku,,,,,,,,,,60.45,22.25
<http://vocab.getty.edu/tgn/7010221>,Kendal,"""Kendal""@en",,,,,,,,,54.316667,-2.75
<http://vocab.getty.edu/tgn/7009584>,Lillehammer,,,,,,,,,,61.1,10.45
<http://vocab.getty.edu/tgn/4001157>,Balerna,,,"""Balerna""@it",,,,,,,45.843248,9.008222
<http://vocab.getty.edu/tgn/1064518>,Weinfelden,,"""Weinfelden""@de",,,,,,,,47.56571,9.10701
<http://vocab.getty.edu/tgn/1064517>,Weggis,,,,,,,,,,47.03208,8.432192
<http://vocab.getty.edu/tgn/1064414>,Sins,,,,,,,,,,47.192161,8.395779
<http://vocab.getty.edu/tgn/4001014>,Avusy,,,,"""Avusy""@fr",,,,,,46.151502,5.994123
<http://vocab.getty.edu/tgn/4001125>,Bagnes,,,,,,,,,,46.083333,7.216667
<http://vocab.getty.edu/tgn/1064417>,Sisikon,,,,,,,,,,46.949146,8.620026
<http://vocab.getty.edu/tgn/1065101>,Litija,,,,,,,,,,46.05,14.8167
<http://vocab.getty.edu/tgn/1064461>,Trogen,,"""Trogen""@de",,,,,,,,47.405413,9.460493
<http://vocab.getty.edu/tgn/1064431>,Stammheim,,,,,,,,,,47.65,8.7833
<http://vocab.getty.edu/tgn/1064533>,Wohlen,,,,,,,,,,47.352359,8.278768
<http://vocab.getty.edu/tgn/1064410>,Signau,,,,,,,,,,46.919443,7.724179
<http://vocab.getty.edu/tgn/1064399>,Seen,,,,,,,,,,47.4833,8.7667
<http://vocab.getty.edu/tgn/1064406>,Seuzach,,"""Seuzach""@de",,,,,,,,47.534974,8.731668
<http://vocab.getty.edu/tgn/4000971>,Aurigeno,,,"""Aurigeno""@it",,,,,,,46.230134,8.715235
<http://vocab.getty.edu/tgn/1065214>,Rab,,,,,,,,,,44.75,14.7667
<http://vocab.getty.edu/tgn/1064514>,Wassen,,,,,,,,,,46.706507,8.59881
<http://vocab.getty.edu/tgn/1064398>,Seeberg,,,,,,,,,,47.155048,7.666646
<http://vocab.getty.edu/tgn/4000904>,Assens,,,,,,,,,,46.612594,6.622221
<http://vocab.getty.edu/tgn/1064494>,Villmergen,,,,,,,,,,47.349173,8.245828
<http://vocab.getty.edu/tgn/1064476>,Uznach,,"""Uznach""@de",,,,,,,,47.224209,8.982634
<http://vocab.getty.edu/tgn/1064422>,Sonceboz,,,,,,,,,,47.197769,7.182067
<http://vocab.getty.edu/tgn/4002632>,Chironico,,,"""Chironico""@it",,,,,,,46.423778,8.84404
<http://vocab.getty.edu/tgn/1064534>,Wolfenschiessen,,,,,,,,,,46.903217,8.394228
<http://vocab.getty.edu/tgn/1064472>,Unterwasser,,,,,,,,,,46.5333,8.35
<http://vocab.getty.edu/tgn/1064505>,Wängi,,"""Wängi""@de",,,,,,,,47.49654,8.95325
<http://vocab.getty.edu/tgn/4002328>,Castel San Pietro,,,"""Castel San Pietro""@it",,,,,,,45.862109,9.008431
<http://vocab.getty.edu/tgn/1064523>,Wetzikon,,"""Wetzikon""@de",,,,,,,,47.325671,8.795716
<http://vocab.getty.edu/tgn/1092341>,Saint-Denis,,,,,,,,,,-20.8667,55.45
<http://vocab.getty.edu/tgn/1137031>,Førde,,,,,,,,,,61.45,5.85
<http://vocab.getty.edu/tgn/1065291>,Velenje,,,,,,,,,,46.3833,15.1333
<http://vocab.getty.edu/tgn/1138710>,Muri,,,,,,,,,,47.270428,8.3382
<http://vocab.getty.edu/tgn/4002765>,Col des Roches,,,,,,,,,,47.03018,6.850514
<http://vocab.getty.edu/tgn/1138709>,Kirchberg,,"""Kirchberg""@de",,,,,,,,47.411412,9.039848
<http://vocab.getty.edu/tgn/1064451>,Thalwil,,,,,,,,,,47.289515,8.567546
<http://vocab.getty.edu/tgn/1064504>,Würenlingen,,,,,,,,,,47.533558,8.256657
<http://vocab.getty.edu/tgn/1064411>,Sigriswil,,,,,,,,,,46.716387,7.710176
<http://vocab.getty.edu/tgn/1064529>,Willisau,,,,,,,,,,47.119362,7.991459
<http://vocab.getty.edu/tgn/1065076>,Kraljevica,,,,,,,,,,45.2667,14.5667
<http://vocab.getty.edu/tgn/4002604>,Cheyres,,,,,,,,,,46.815311,6.787684
<http://vocab.getty.edu/tgn/1064528>,Wildhaus,,"""Wildhaus""@de",,,,,,,,47.20583,9.35402
<http://vocab.getty.edu/tgn/1064483>,Vaulruz,,,,,,,,,,46.621176,6.987267
<http://vocab.getty.edu/tgn/1064550>,Zuchwil,,,,,,,,,,47.207778,7.561126
<http://vocab.getty.edu/tgn/1064408>,Siebnen,,"""Siebnen""@de",,,,,,,,47.179309,8.902868
<http://vocab.getty.edu/tgn/1064549>,Zollikon,,,,,,,,,,47.338967,8.577801
<http://vocab.getty.edu/tgn/4000319>,Årstad,,,,,,,,,,58.3333,6.2833
<http://vocab.getty.edu/tgn/1137835>,Leninsk,,,,,,,,,,48.7,45.2333
<http://vocab.getty.edu/tgn/1064449>,Teufen,,"""Teufen""@de",,,,,,,,47.390723,9.389564
<http://vocab.getty.edu/tgn/1064478>,Vättis,,,,,,,,,,46.908143,9.440483
<http://vocab.getty.edu/tgn/1064403>,Sennwald,,"""Sennwald""@de",,,,,,,,47.260626,9.502685
<http://vocab.getty.edu/tgn/1064547>,Zofingen,,,,,,,,,,47.289945,7.947274
<http://vocab.getty.edu/tgn/1064487>,Vernier,,,,"""Vernier""@fr",,,,,,46.215302,6.084552
<http://vocab.getty.edu/tgn/1064485>,Vergeletto,,,"""Vergeletto""@it",,,,,,,46.227483,8.600257
<http://vocab.getty.edu/tgn/1064464>,Turbenthal,,"""Turbenthal""@de",,,,,,,,47.438101,8.846442
<http://vocab.getty.edu/tgn/1064516>,Wattwil,,"""Wattwil""@de",,,,,,,,47.299553,9.08657
<http://vocab.getty.edu/tgn/1064477>,Vésenaz,,,,"""Vésenaz""@fr",,,,,,46.242185,6.203142
<http://vocab.getty.edu/tgn/1064407>,Sevelen,,"""Sevelen""@de",,,,,,,,47.121992,9.486926
<http://vocab.getty.edu/tgn/4002068>,Cademario,,,"""Cademario""@it",,,,,,,46.020408,8.897649
<http://vocab.getty.edu/tgn/1064527>,Wildegg,,,,,,,,,,47.383333,8.166667
<http://vocab.getty.edu/tgn/1064473>,Urnäsch,,"""Urnäsch""@de",,,,,,,,47.316694,9.279504
<http://vocab.getty.edu/tgn/1064423>,Sonogno,,,"""Sonogno""@it",,,,,,,46.350402,8.785141
<http://vocab.getty.edu/tgn/1064541>,Zell,,,,,,,,,,47.136727,7.924948
<http://vocab.getty.edu/tgn/1064520>,Weisstannen,,,,,,,,,,46.989247,9.3436
<http://vocab.getty.edu/tgn/1138708>,Buchs,,,,,,,,,,47.387774,8.073525
<http://vocab.getty.edu/tgn/4001498>,Biberist,,,,,,,,,,47.185591,7.56005
<http://vocab.getty.edu/tgn/1064433>,Stansstad,,,,,,,,,,46.97731,8.34005
<http://vocab.getty.edu/tgn/1064436>,Steg,,"""Steg""@de",,,,,,,,47.353925,8.932545
<http://vocab.getty.edu/tgn/4000582>,Alt Sankt Johann,,"""Alt Sankt Johann""@de",,,,,,,,47.193101,9.281265
<http://vocab.getty.edu/tgn/1064510>,Wallisellen,,,,,,,,,,47.418328,8.589816
<http://vocab.getty.edu/tgn/1064400>,Seengen,,,,,,,,,,47.328515,8.205091
<http://vocab.getty.edu/tgn/4001779>,Brè,,,"""Brè""@it",,,,,,,46.011989,8.997919
<http://vocab.getty.edu/tgn/4001039>,Böttstein,,,,,,,,,,47.553986,8.220009
<http://vocab.getty.edu/tgn/1064439>,Suhr,,,,,,,,,,47.371725,8.079669
<http://vocab.getty.edu/tgn/1064507>,Waldenburg,,,,,,,,,,47.382068,7.74636
<http://vocab.getty.edu/tgn/1138707>,Bürglen,,"""Bürglen""@de",,,,,,,,47.549209,9.149502
<http://vocab.getty.edu/tgn/4000975>,Ausserbinn,,"""Ausserbinn""@de",,,,,,,,46.382807,8.147294
<http://vocab.getty.edu/tgn/1064506>,Wald,,"""Wald""@de",,,,,,,,47.27667,8.91535
<http://vocab.getty.edu/tgn/1064458>,Trasadingen,,,,,,,,,,47.668267,8.430873
<http://vocab.getty.edu/tgn/1064429>,Stöckalp,,,,,,,,,,46.8,8.2833
<http://vocab.getty.edu/tgn/1064508>,Waldstatt,,"""Waldstatt""@de",,,,,,,,47.357704,9.286044
<http://vocab.getty.edu/tgn/1064503>,Wädenswil,,,,,,,,,,47.228726,8.670585
<http://vocab.getty.edu/tgn/1064496>,Vira,,,"""Vira""@it",,,,,,,46.097531,8.922114
<http://vocab.getty.edu/tgn/4001947>,Bubikon,,"""Bubikon""@de",,,,,,,,47.270448,8.820701
<http://vocab.getty.edu/tgn/1064416>,Sirnach,,"""Sirnach""@de",,,,,,,,47.46359,8.99507
<http://vocab.getty.edu/tgn/1064428>,Stäfa,,,,,,,,,,47.24439,8.72112
<http://vocab.getty.edu/tgn/4000844>,Arnsburg,,,,,,,,,,50.5,8.8
<http://vocab.getty.edu/tgn/1064404>,Seon,,,,,,,,,,47.3449,8.156071
<http://vocab.getty.edu/tgn/1065293>,Tržič,,,,,,,,,,46.3667,14.3
<http://vocab.getty.edu/tgn/1064952>,Brijuni,,,,,,,,,,44.9167,13.7667
<http://vocab.getty.edu/tgn/1138711>,Reinach,,,,,,,,,,47.5,7.6
<http://vocab.getty.edu/tgn/1064471>,Unterterzen,,"""Unterterzen""@de",,,,,,,,47.113081,9.251864
<http://vocab.getty.edu/tgn/1064469>,Unterschächen,,,,,,,,,,46.86281,8.769234
<http://vocab.getty.edu/tgn/1064512>,Wangs,,,,,,,,,,47.032607,9.434059
<http://vocab.getty.edu/tgn/1064479>,Valangin,,,,,,,,,,47.02045,6.90632
<http://vocab.getty.edu/tgn/4001725>,Bottens,,,,,,,,,,46.617106,6.660454
<http://vocab.getty.edu/tgn/4001164>,Ballaigues,,,,,,,,,,46.730553,6.41556
<http://vocab.getty.edu/tgn/1064452>,Thayngen,,"""Thayngen""@de",,,,,,,,47.74829,8.70555
<http://vocab.getty.edu/tgn/8702922>,Landarenca,,,"""Landarenca""@it",,,,,,,46.31819,9.111131
<http://vocab.getty.edu/tgn/8702921>,Landbrugg,,,,,,,,,,46.944825,8.007241
<http://vocab.getty.edu/tgn/8702930>,Hausen,,,,,,,,,,46.735485,8.168463
<http://vocab.getty.edu/tgn/8702964>,Feusisberg,,"""Feusisberg""@de",,,,,,,,47.187067,8.747244
<http://vocab.getty.edu/tgn/8702769>,Biglen,,,,,,,,,,46.926287,7.625077
<http://vocab.getty.edu/tgn/8702967>,Fetan,,,,,,,,,,46.8,10.233333
<http://vocab.getty.edu/tgn/8702954>,Filderich,,,,,,,,,,46.545204,7.50242
<http://vocab.getty.edu/tgn/8702710>,Heimenschwand,,,,,,,,,,46.828683,7.694743
<http://vocab.getty.edu/tgn/8702972>,Colombier,,,,,,,,,,46.55619,6.472818
<http://vocab.getty.edu/tgn/8702815>,Soyhières,,,,,,,,,,47.388839,7.366196
<http://vocab.getty.edu/tgn/8702959>,Fideriser Alp Duranna,,,,,,,,,,46.866498,9.797106
<http://vocab.getty.edu/tgn/8702937>,Haslen,,"""Haslen""@de",,,,,,,,47.369308,9.367519
<http://vocab.getty.edu/tgn/8702936>,Hasli,,,,,,,,,,46.670983,7.65166
<http://vocab.getty.edu/tgn/8702877>,Ohmstal,,,,,,,,,,47.158326,7.952279
<http://vocab.getty.edu/tgn/8702943>,Hämikon,,,,,,,,,,47.238569,8.275917
<http://vocab.getty.edu/tgn/8702784>,Biberbrugg,,"""Biberbrugg""@de",,,,,,,,47.156806,8.723459
<http://vocab.getty.edu/tgn/8702761>,Coltura,,,,,,,,,,46.343546,9.584018
<http://vocab.getty.edu/tgn/8702777>,Biel,,,,,,,,,,46.455407,8.217301
<http://vocab.getty.edu/tgn/8702923>,Lancy,,,,,,,,,,46.183965,6.119136
<http://vocab.getty.edu/tgn/8702906>,Langnau,,,,,,,,,,47.285027,8.534167
<http://vocab.getty.edu/tgn/8702907>,Langnau,,,,,,,,,,47.230016,7.96308
<http://vocab.getty.edu/tgn/8702944>,Halten,,,,,,,,,,46.9,8.166667
<http://vocab.getty.edu/tgn/8702841>,Russikon,,"""Russikon""@de",,,,,,,,47.395203,8.776097
<http://vocab.getty.edu/tgn/8702770>,Bigenthal,,,,,,,,,,46.966129,7.624039
<http://vocab.getty.edu/tgn/8702920>,Landiswil,,,,,,,,,,46.958152,7.680271
<http://vocab.getty.edu/tgn/8702765>,Binn,,"""Binn""@de",,,,,,,,46.364188,8.184399
<http://vocab.getty.edu/tgn/8702926>,Hauteville,,,,,,,,,,46.670216,7.107736
<http://vocab.getty.edu/tgn/8702962>,Feydey,,,,,,,,,,46.343126,7.010564
<http://vocab.getty.edu/tgn/8702898>,Mettendorf,,"""Mettendorf""@de",,,,,,,,47.57742,8.96999
<http://vocab.getty.edu/tgn/8702929>,Hausen,,,,,,,,,,47.242282,8.531675
<http://vocab.getty.edu/tgn/8702779>,Bichelsee,,"""Bichelsee""@de",,,,,,,,47.44902,8.92434
<http://vocab.getty.edu/tgn/8702912>,Längenschachen,,,,,,,,,,46.72607,7.680356
<http://vocab.getty.edu/tgn/8702817>,Soubey,,,,,,,,,,47.309329,7.048862
<http://vocab.getty.edu/tgn/8702730>,Flerden,,,,,,,,,,46.703032,9.408211
<http://vocab.getty.edu/tgn/8702743>,Corbeyrier,,,,"""Corbeyrier""@fr",,,,,,46.350133,6.960167
<http://vocab.getty.edu/tgn/8702892>,Mézières,,,,,,,,,,46.678991,6.926499
<http://vocab.getty.edu/tgn/8702734>,Flamatt,,,,,,,,,,46.889575,7.318285
<http://vocab.getty.edu/tgn/8702722>,Flüeli,,,,,,,,,,46.870973,8.267338
<http://vocab.getty.edu/tgn/8702741>,Corcelles,,,,,,,,,,46.83322,6.962308
<http://vocab.getty.edu/tgn/8702839>,Rüstenschwil,,,,,,,,,,47.22626,8.366046
<http://vocab.getty.edu/tgn/8702895>,Metzerlen,,,,,,,,,,47.466337,7.465739
<http://vocab.getty.edu/tgn/8702905>,Langrickenbach,,"""Langrickenbach""@de",,,,,,,,47.59353,9.24727
<http://vocab.getty.edu/tgn/8702852>,Rümikon,,,,,,,,,,47.565744,8.375941
<http://vocab.getty.edu/tgn/8702821>,Sornetan,,,,,,,,,,47.274607,7.216855
<http://vocab.getty.edu/tgn/8702880>,Mitholz,,,,,,,,,,46.52727,7.674139
<http://vocab.getty.edu/tgn/8702790>,Aarburg,,,,,,,,,,47.319634,7.901413
<http://vocab.getty.edu/tgn/8702762>,Colovrex,,,,"""Colovrex""@fr",,,,,,46.255864,6.131148
<http://vocab.getty.edu/tgn/8702714>,Heidbühl,,,,,,,,,,46.87247,7.801045
<http://vocab.getty.edu/tgn/8702939>,Hasle,,,,,,,,,,46.977865,8.053255
<http://vocab.getty.edu/tgn/8702932>,Hauenstein,,,,,,,,,,47.377923,7.872087
<http://vocab.getty.edu/tgn/8702766>,Bilten,,"""Bilten""@de",,,,,,,,47.149952,9.025513
<http://vocab.getty.edu/tgn/8702826>,Soral,,,,"""Soral""@fr",,,,,,46.142837,6.042624
<http://vocab.getty.edu/tgn/8702755>,Compesières,,,,"""Compesières""@fr",,,,,,46.151976,6.12092
<http://vocab.getty.edu/tgn/8702861>,Ormalingen,,,,,,,,,,47.466362,7.861001
<http://vocab.getty.edu/tgn/8702953>,Filisur,,,,,,,,,,46.672147,9.688013
<http://vocab.getty.edu/tgn/8702934>,Hätzingen,,,,,,,,,,46.961082,9.036962
<http://vocab.getty.edu/tgn/8702827>,Sool,,,,,,,,,,47.00072,9.086045
<http://vocab.getty.edu/tgn/8702759>,Combremont-le-Petit,,,,,,,,,,46.74889,6.808699
<http://vocab.getty.edu/tgn/8702823>,Sorens,,,,,,,,,,46.668456,7.056934
<http://vocab.getty.edu/tgn/8702838>,Ruswil,,,,,,,,,,47.084253,8.126446
<http://vocab.getty.edu/tgn/8702840>,Russin,,,,"""Russin""@fr",,,,,,46.187333,6.012966
<http://vocab.getty.edu/tgn/8702737>,Fischenthal,,"""Fischenthal""@de",,,,,,,,47.3334,8.923502
<http://vocab.getty.edu/tgn/8702712>,Heiligenschwendi,,,,,,,,,,46.747344,7.669056
<http://vocab.getty.edu/tgn/8702942>,Handegg,,,,,,,,,,46.61205,8.307851
<http://vocab.getty.edu/tgn/8702857>,Orpund,,,,,,,,,,47.139437,7.305925
<http://vocab.getty.edu/tgn/8702751>,Conters,,,,,,,,,,46.607286,9.59359
<http://vocab.getty.edu/tgn/8702835>,Rüti,,,,,,,,,,46.93779,9.016949
<http://vocab.getty.edu/tgn/8702745>,Coppet,,,,"""Coppet""@fr",,,,,,46.286325,7.325048
<http://vocab.getty.edu/tgn/8702973>,Cologny,,,,,,,,,,46.218194,6.18501
<http://vocab.getty.edu/tgn/8702879>,Mittel Arni,,,,,,,,,,46.800379,8.090093
<http://vocab.getty.edu/tgn/8702870>,Onnens,,,,,,,,,,46.775251,7.039341
<http://vocab.getty.edu/tgn/8702850>,Rünenberg,,,,,,,,,,47.434766,7.882899
<http://vocab.getty.edu/tgn/8702750>,Conters,,,,,,,,,,46.9,9.783333
<http://vocab.getty.edu/tgn/8702948>,Halen,,,,,,,,,,46.916667,7.466667
<http://vocab.getty.edu/tgn/8702846>,Rüschegg,,,,,,,,,,46.779773,7.391673
<http://vocab.getty.edu/tgn/8702897>,Mettlen,,"""Mettlen""@de",,,,,,,,47.53112,9.12344
<http://vocab.getty.edu/tgn/8702721>,Flüeln,,,,,,,,,,46.903019,8.625495
<http://vocab.getty.edu/tgn/8702717>,Haut-Vully,,,,,,,,,,46.957303,7.07226
<http://vocab.getty.edu/tgn/8702899>,Metsch,,,,,,,,,,46.503746,7.624677
<http://vocab.getty.edu/tgn/8702813>,Speicher,,,,,,,,,,46.763084,7.888787
<http://vocab.getty.edu/tgn/8702733>,Fläsch,,,,,,,,,,47.026261,9.513652
<http://vocab.getty.edu/tgn/8702917>,Landquart Fabriken,,,,,,,,,,46.955728,9.560259
<http://vocab.getty.edu/tgn/8702955>,Fiez,,,,,,,,,,46.827156,6.62333
<http://vocab.getty.edu/tgn/8702810>,Spiggengrund,,,,,,,,,,46.566667,7.783333
<http://vocab.getty.edu/tgn/8702781>,Bibern,,,,,,,,,,47.773514,8.677635
<http://vocab.getty.edu/tgn/8702783>,Biberen,,,,,,,,,,46.93864,7.21196
<http://vocab.getty.edu/tgn/8702848>,Rupperswil,,,,,,,,,,47.40131,8.128769
<http://vocab.getty.edu/tgn/8702965>,Feuerthalen,,,,,,,,,,47.690331,8.646488
<http://vocab.getty.edu/tgn/8702749>,Conthey,,,,"""Conthey""@fr",,,,,,46.223702,7.302829
<http://vocab.getty.edu/tgn/8702757>,Compadials,,,,,,,,,,46.722694,8.92057
<http://vocab.getty.edu/tgn/8702974>,Collonges,,,,"""Collonges""@fr",,,,,,46.172052,7.034392
<http://vocab.getty.edu/tgn/8702711>,Heimberg,,,,,,,,,,46.794824,7.604332
<http://vocab.getty.edu/tgn/8702900>,Messen,,,,,,,,,,47.091278,7.44957
<http://vocab.getty.edu/tgn/8702889>,Miécourt,,,,,,,,,,47.427436,7.175945
<http://vocab.getty.edu/tgn/8702725>,Flond,,,,,,,,,,46.767022,9.165199
<http://vocab.getty.edu/tgn/8702961>,Fidaz,,,,,,,,,,46.840742,9.309809
<http://vocab.getty.edu/tgn/8702845>,Rüschegg-Graben,,,,,,,,,,46.795292,7.402455
<http://vocab.getty.edu/tgn/8702834>,Rüti,,,,,,,,,,47.151728,7.4047
<http://vocab.getty.edu/tgn/8702960>,Fideris,,,,,,,,,,46.915181,9.742702
<http://vocab.getty.edu/tgn/8702963>,Feutersoey,,"""Feutersoey""@de",,,,,,,,46.417206,7.270242
<http://vocab.getty.edu/tgn/7007495>,Walenstadt,,"""Walenstadt""@de",,,,,,,,47.12315,9.31329
<http://vocab.getty.edu/tgn/7007660>,Gdańsk,,,,,,,,,,54.3667,18.6833
<http://vocab.getty.edu/tgn/7007449>,Reinach,,,,,,,,,,47.259435,8.188453
<http://vocab.getty.edu/tgn/7007453>,Rorschach,,"""Rorschach""@de",,,,,,,,47.477166,9.485434
<http://vocab.getty.edu/tgn/7007375>,Ilanz,,"""Ilanz""@de",,,,,,,,46.773071,9.204486
<http://vocab.getty.edu/tgn/7007691>,Oberuzwil,,"""Oberuzwil""@de",,,,,,,,47.430322,9.125194
<http://vocab.getty.edu/tgn/7007640>,Cze̜stochowa,,,,,,,,,,50.8,19.1167
<http://vocab.getty.edu/tgn/7007376>,Ins,,,,,,,,,,47.004993,7.106403
<http://vocab.getty.edu/tgn/7007478>,Stein am Rhein,,"""Stein am Rhein""@de",,,,,,,,47.65604,8.854716
<http://vocab.getty.edu/tgn/7007695>,Kappel,,,,,,,,,,47.2833,9.1167
<http://vocab.getty.edu/tgn/7007391>,Langenthal,,,,,,,,,,47.21526,7.796072
<http://vocab.getty.edu/tgn/7007666>,Augst,,,,,,,,,,47.536818,7.717205
<http://vocab.getty.edu/tgn/7007408>,Marbach,,,,,,,,,,46.854412,7.899664
<http://vocab.getty.edu/tgn/7007442>,Pfäfers Drof,,,,,,,,,,46.988959,9.500163
<http://vocab.getty.edu/tgn/7007447>,Belchite,,,,,,,,,,41.3,-0.75
<http://vocab.getty.edu/tgn/7007667>,Basel-Stadt,,"""Basel-Stadt""@de",,,,,,,,47.566901,7.615195
<http://vocab.getty.edu/tgn/7007504>,Bad Zurzach,,,,,,,,,,47.589169,8.289621
<http://vocab.getty.edu/tgn/7007426>,Barcelona,,,,,,,,,,41.398371,2.1741
<http://vocab.getty.edu/tgn/7007393>,La Tour-de-Peilz,,,,,,,,,,46.453552,6.858596
<http://vocab.getty.edu/tgn/7007368>,Göschenen,,,,,,,,,,46.66816,8.587094
<http://vocab.getty.edu/tgn/7007384>,Küsnacht,,,,,,,,,,47.31776,8.581943
<http://vocab.getty.edu/tgn/7007472>,Spiez,,,,,,,,,,46.684733,7.691108
<http://vocab.getty.edu/tgn/7007399>,Liestal,,"""Liestal""@de",,,,,,,,47.482779,7.742975
<http://vocab.getty.edu/tgn/7007496>,Wettingen,,,,,,,,,,47.470495,8.31636
<http://vocab.getty.edu/tgn/7007625>,Bydgoszcz,,,,,,,,,,53.15,18
<http://vocab.getty.edu/tgn/7007626>,Bytom,,,,,,,,,,50.35,18.9667
<http://vocab.getty.edu/tgn/7007473>,Stans,,,,,,,,,,46.95805,8.36609
<http://vocab.getty.edu/tgn/7007499>,Wolhusen,,,,,,,,,,47.059834,8.073892
<http://vocab.getty.edu/tgn/7007377>,Interlaken,,,,,,,,,,46.683872,7.866376
<http://vocab.getty.edu/tgn/7007392>,La Sarraz,,,,,,,,,,46.659108,6.514676
<http://vocab.getty.edu/tgn/7007365>,Giornico,,,"""Giornico""@it",,,,,,,46.390869,8.887426
<http://vocab.getty.edu/tgn/7007396>,Laupen,,,,,,,,,,46.900357,7.229162
<http://vocab.getty.edu/tgn/7007379>,Jona,,,,,,,,,,47.2167,9.0333
<http://vocab.getty.edu/tgn/7007389>,Lancy,,,,,,,,,,46.2,6.1333
<http://vocab.getty.edu/tgn/7007388>,Lachen,,"""Lachen""@de",,,,,,,,47.19927,8.85432
<http://vocab.getty.edu/tgn/7007557>,Bern,"""Bern""@en",,,,,,,,,46.916667,7.466667
<http://vocab.getty.edu/tgn/7007366>,Glarus,,"""Glarus""@de",,,,,,,,47.04057,9.068036
<http://vocab.getty.edu/tgn/7007512>,Cádiz,,,,,,,,"""Cádiz""@es",,36.533611,-6.299444
<http://vocab.getty.edu/tgn/7007407>,Malvaglia,,,"""Malvaglia""@it",,,,,,,46.405885,8.981899
<http://vocab.getty.edu/tgn/7007378>,Jegenstorf,,,,,,,,,,47.052379,7.50931
<http://vocab.getty.edu/tgn/7007545>,Białystok,,,,,,,,,,53.15,23.1667
<http://vocab.getty.edu/tgn/7007387>,La Chaux-de-Fonds,,,,,,,,,,47.104417,6.828892
<http://vocab.getty.edu/tgn/7007369>,Grandson,,,,,,,,,,46.809389,6.645521
<http://vocab.getty.edu/tgn/7007490>,Versoix,,,,"""Versoix""@fr",,,,,,46.283821,6.162142
<http://vocab.getty.edu/tgn/7007477>,Stein,,,,,,,,,,47.546614,7.953096
<http://vocab.getty.edu/tgn/7007571>,Cadaqués,,,,,,,,,,42.289186,3.275695
<http://vocab.getty.edu/tgn/7007464>,Schüpfheim,,,,,,,,,,46.951613,8.017235
<http://vocab.getty.edu/tgn/7007425>,Murten,,,,,,,,,,46.92684,7.110343
<http://vocab.getty.edu/tgn/7007406>,Maggia,,,"""Maggia""@it",,,,,,,46.246894,8.706203
<http://vocab.getty.edu/tgn/7007432>,Oberägeri,,,,,,,,,,47.1333,8.6167
<http://vocab.getty.edu/tgn/7007679>,Jarosław,,,,,,,,,,50,22.6667
<http://vocab.getty.edu/tgn/7007544>,Zug,,"""Zug""@de",,,,,,,,47.172421,8.517445
<http://vocab.getty.edu/tgn/7007413>,Morcote,,,"""Morcote""@it",,,,,,,45.927066,8.908208
<http://vocab.getty.edu/tgn/7007424>,Muttenz,,,,,,,,,,47.525259,7.644511
<http://vocab.getty.edu/tgn/7007416>,Moutier,,,,,,,,,,47.277733,7.369712
<http://vocab.getty.edu/tgn/7007452>,Ronco,,,"""Ronco""@it",,,,,,,46.200664,8.65284
<http://vocab.getty.edu/tgn/7007444>,Pfäffikon,,"""Pfäffikon""@de",,,,,,,,47.365728,8.78595
<http://vocab.getty.edu/tgn/7007358>,Frauenfeld,,"""Frauenfeld""@de",,,,,,,,47.61203,8.90696
<http://vocab.getty.edu/tgn/7007460>,Sankt Gallen,,"""Sankt Gallen""@de",,,,,,,,47.43639,9.388615
<http://vocab.getty.edu/tgn/7007703>,Granada,,,,,,,,,,37.183333,-3.6
<http://vocab.getty.edu/tgn/7007427>,Näfels,,"""Näfels""@de",,,,,,,,47.097754,9.063609
<http://vocab.getty.edu/tgn/7007374>,Hospenthal,,,,,,,,,,46.619218,8.568484
<http://vocab.getty.edu/tgn/7007380>,Kallnach,,,,,,,,,,47.020319,7.235453
<http://vocab.getty.edu/tgn/7007429>,Neu Sankt Johann,,"""Neu Sankt Johann""@de",,,,,,,,47.230616,9.195003
<http://vocab.getty.edu/tgn/7007471>,Sissach,,,,,,,,,,47.467368,7.799596
<http://vocab.getty.edu/tgn/7007434>,Oberhofen,,,,,,,,,,46.731482,7.669029
