Concept,Label,@en,@de,@it,@fr,@hu,@ca,@ru,@es,@el-latn,Lat,Long
<http://vocab.getty.edu/tgn/1005645>,Spandau,,,,,,,,,,52.55,13.2
<http://vocab.getty.edu/tgn/1000462>,Uppsala,,,,,,,,,,60,17.75
<http://vocab.getty.edu/tgn/1003666>,Wirral,"""irra""@en",,,,,,,,,53.3333,-3.0833
<http://vocab.getty.edu/tgn/1000074>,Ellás,"""reec""@en","""riechenlan""@de","""reci""@it","""rèc""@fr",,,"""реци""@ru","""reci""@es","""llá""@el-latn",39,22
<http://vocab.getty.edu/tgn/1000376>,Galaţi,,,,,,,,,,45.75,27.75
<http://vocab.getty.edu/tgn/1000095>,España,"""pai""@en","""panie""@de",,"""spagn""@fr",,,"""спани""@ru","""spañ""@es",,40,-4
<http://vocab.getty.edu/tgn/1003489>,Potenza,,,,,,,,,,40.583333,15.733333
<http://vocab.getty.edu/tgn/1000088>,Norge,"""orwa""@en","""orwege""@de","""orvegi""@it","""orvèg""@fr",,,"""орвеги""@ru","""orueg""@es",,62,10
<http://vocab.getty.edu/tgn/1000097>,Sverige,"""wede""@en","""chwede""@de","""vezi""@it","""uèd""@fr",,,"""веци""@ru","""ueci""@es",,62,15
<http://vocab.getty.edu/tgn/1000466>,Västernorrland,,,,,,,,,,63,17.5
<http://vocab.getty.edu/tgn/1001052>,İstanbul,,,,,,,,,,41.166667,28.75
<http://vocab.getty.edu/tgn/1000394>,București,,,,,,,,,,44.5,26.0833
<http://vocab.getty.edu/tgn/1003428>,Alessandria,,,,,,,,,,44.816667,8.7
<http://vocab.getty.edu/tgn/1003396>,Odes'ka Oblast',,,,,,,,,,47,30
<http://vocab.getty.edu/tgn/1000336>,Alba,,,,,,,,,,46.1667,23.5833
<http://vocab.getty.edu/tgn/1000063>,België,"""elgiu""@en","""elgie""@de","""elgi""@it","""elgiqu""@fr",,,"""ельги""@ru","""élgic""@es",,50.8333,4
<http://vocab.getty.edu/tgn/1003182>,Koblenz,,,,,,,,,,50.1667,7.25
<http://vocab.getty.edu/tgn/1025375>,Absam,,,,,,,,,,47.3,11.5
<http://vocab.getty.edu/tgn/1003430>,Aosta,,,,,,,,,,45.766667,7.416667
<http://vocab.getty.edu/tgn/1003361>,Kharkivs'ka Oblast',,,,,,,,,,49.5,36.5
<http://vocab.getty.edu/tgn/1005279>,Orpington,"""rpingto""@en",,,,,,,,,51.3833,0.0833
<http://vocab.getty.edu/tgn/1025430>,Bad-Hall,,,,,,,,,,48.05,14.2167
<http://vocab.getty.edu/tgn/1003407>,Samarskaya Oblast’,,,,,,,"""amar""@ru-latn",,,53,50
<http://vocab.getty.edu/tgn/1000062>,Österreich,"""ustri""@en","""sterreic""@de",,"""utrich""@fr",,,"""встри""@ru","""ustri""@es",,47.3333,13.3333
<http://vocab.getty.edu/tgn/1000078>,Ireland,"""relan""@en","""rlan""@de",,"""rland""@fr",,,"""рланди""@ru","""rland""@es",,53,-8
<http://vocab.getty.edu/tgn/1000066>,Danmark,"""enmar""@en","""änemar""@de","""animarc""@it","""anemar""@fr",,,"""ани""@ru","""inamarc""@es",,56,10
<http://vocab.getty.edu/tgn/1004692>,Hook,"""oo""@en",,,,,,,,,51.3667,-0.3
<http://vocab.getty.edu/tgn/1005309>,Pankow,,,,,,,,,,52.5667,13.4
<http://vocab.getty.edu/tgn/1001732>,Palermo,,,,,,,,,,37.816667,13.583333
<http://vocab.getty.edu/tgn/1000091>,România,"""omani""@en","""umänie""@de",,"""oumani""@fr",,,"""умыни""@ru","""umani""@es",,46,25
<http://vocab.getty.edu/tgn/1003314>,Krasnoyarskiy Kray,,,,,,,,,,58,93
<http://vocab.getty.edu/tgn/1005422>,Reinickendorf,,,,,,,,,,52.5833,13.3333
<http://vocab.getty.edu/tgn/1000443>,Sibiu,,,,,,,,,,45.9167,24.25
<http://vocab.getty.edu/tgn/1003611>,Kirklees,"""irklee""@en",,,,,,,,,53.5833,-1.8333
<http://vocab.getty.edu/tgn/1004847>,Kensington and Chelsea,"""ensington and Chelse""@en",,,,,,,,,51.45,-0.1833
<http://vocab.getty.edu/tgn/1003614>,Liverpool,"""iverpoo""@en",,,,,,,,,53.4167,-3
<http://vocab.getty.edu/tgn/1003460>,Grosseto,,,,,,,,,,42.833333,11.25
<http://vocab.getty.edu/tgn/1003429>,Ancona,,,,,,,,,,43.55,13.166667
<http://vocab.getty.edu/tgn/1003432>,Ascoli Piceno,,,,,,,,,,43.016667,13.566667
<http://vocab.getty.edu/tgn/1003459>,Gorizia,,,,,,,,,,45.916667,13.5
<http://vocab.getty.edu/tgn/1000374>,Gävleborg,,,,,,,,,,61.5,16.25
<http://vocab.getty.edu/tgn/1025423>,Bürs,,,,,,,,,,47.15,9.8167
<http://vocab.getty.edu/tgn/1001647>,Castilla-La Mancha,,,,,,,,,,39.5,-3
<http://vocab.getty.edu/tgn/1000882>,Lisboa,,,,,,,,,,39,-9.133333
<http://vocab.getty.edu/tgn/1003505>,Trieste,,,,,,,,,,45.333333,13.416667
<http://vocab.getty.edu/tgn/1003510>,Vercelli,,,,,,,,,,45.616667,8.166667
<http://vocab.getty.edu/tgn/1000403>,Dalarna,,,,,,,,,,61,14.5
<http://vocab.getty.edu/tgn/1003398>,Orenburgskaya Oblast',,,,,,,"""renburgskaya Oblast""@ru-latn",,,52,56
<http://vocab.getty.edu/tgn/1004968>,Lichtenberg,,,,,,,,,,52.5167,13.4833
<http://vocab.getty.edu/tgn/1003397>,Orlovskaya Oblast’,"""re""@en",,,,,,"""ryo""@ru-latn",,,53,36.416
<http://vocab.getty.edu/tgn/1003473>,Massa-Carrara,,,,,,,,,,44.25,10.05
<http://vocab.getty.edu/tgn/1005382>,Purley,"""urle""@en",,,,,,,,,51.3333,-0.1167
<http://vocab.getty.edu/tgn/1001622>,Agrigento,,,,,,,,,,37.45,13.5
<http://vocab.getty.edu/tgn/1000216>,Polynésie française,"""rench Polynesi""@en",,,,,,,,,-15,-140
<http://vocab.getty.edu/tgn/1004664>,Hillegersberg,,,,,,,,,,51.9667,4.5167
<http://vocab.getty.edu/tgn/1003373>,Irkutskaya Oblast',,,,,,,,,,56,106
<http://vocab.getty.edu/tgn/1003408>,Saratovskaya Oblast',,,,,,,"""arato""@ru-latn",,,51.5,47
<http://vocab.getty.edu/tgn/1003600>,Halton,"""alto""@en",,,,,,,,,53.3333,-2.7
<http://vocab.getty.edu/tgn/1000344>,Bihor,,,,,,,,,,47,22.3333
<http://vocab.getty.edu/tgn/1005101>,Mitte,,,,,,,,,,52.55,13.3667
<http://vocab.getty.edu/tgn/1000440>,Sør-Trøndelag,,,,,,,,,,63,10.6667
<http://vocab.getty.edu/tgn/1003573>,Calderdale,"""alderdal""@en",,,,,,,,,53.75,-2
<http://vocab.getty.edu/tgn/1000184>,Réunion,"""eunio""@en",,,,,,,,,-21.1,55.6
<http://vocab.getty.edu/tgn/1025397>,Amstetten,,,,,,,,,,48.1333,14.8667
<http://vocab.getty.edu/tgn/1003450>,Cosenza,,,,,,,,,,39.466667,16.416667
<http://vocab.getty.edu/tgn/1003447>,Catanzaro,,,,,,,,,,38.9,16.6
<http://vocab.getty.edu/tgn/1003405>,Rostovskaya Oblast’,,,,,,,"""osto""@ru-latn",,,47.440322,41.080829
<http://vocab.getty.edu/tgn/1000090>,Portugal,"""ortuga""@en",,,"""ortuga""@fr",,,"""ортугали""@ru","""ortuga""@es",,39.5,-8
<http://vocab.getty.edu/tgn/1025426>,Bad Aussee,,,,,,,,,,47.6167,13.7833
<http://vocab.getty.edu/tgn/1003566>,Bolton,"""olto""@en",,,,,,,,,53.5833,-2.4167
<http://vocab.getty.edu/tgn/1025432>,Bad Ischl,,,,,,,,,,47.7167,13.6333
<http://vocab.getty.edu/tgn/1005180>,Neukölln,,,,,,,,,,52.483333,13.45
<http://vocab.getty.edu/tgn/1001762>,Trapani,,,,,,,,,,37.833333,12.666667
<http://vocab.getty.edu/tgn/1003508>,Varese,,,,,,,,,,45.8,8.8
<http://vocab.getty.edu/tgn/1003468>,Lecce,,,,,,,,,,40.216667,18.166667
<http://vocab.getty.edu/tgn/1003523>,Jihomoravský Kraj,,,,,,,,,,49.1667,16.583
<http://vocab.getty.edu/tgn/1003506>,Udine,,,,,,,,,,46.166667,13
<http://vocab.getty.edu/tgn/1003530>,Středočeský Kraj,"""tředočesk""@en",,,,,,,,,50.083,14.4167
<http://vocab.getty.edu/tgn/1003656>,Trafford,"""raffor""@en",,,,,,,,,53.4,-2.35
<http://vocab.getty.edu/tgn/1005654>,Stadlau,,,,,,,,,,48.2333,16.4667
<http://vocab.getty.edu/tgn/1001651>,Catania,,,,,,,,,,37.383333,14.666667
<http://vocab.getty.edu/tgn/1001641>,Cagliari,,,,,,,,,,39.5,8.75
<http://vocab.getty.edu/tgn/1000396>,Jönköping,,,,,,,,,,57.5,14.5
<http://vocab.getty.edu/tgn/1000351>,Brașov,,,,,,,,,,45.75,25.3333
<http://vocab.getty.edu/tgn/1000070>,France,"""ranc""@en","""rankreic""@de","""ranci""@it","""ranc""@fr",,,"""ранци""@ru","""ranci""@es",,46,2
<http://vocab.getty.edu/tgn/1001439>,Murcia,,,,,,,,,,37.9167,-1.5
<http://vocab.getty.edu/tgn/1025441>,Badgastein,,,,,,,,,,47.1167,13.15
<http://vocab.getty.edu/tgn/1003381>,"Krym, Avtonomna Respublika",,,,,,,,,,45,34
<http://vocab.getty.edu/tgn/1001780>,Česko,"""zech Republi""@en",,,"""épublique tchèqu""@fr",,,"""ешская Республик""@ru","""epública Chec""@es",,49.75,15
<http://vocab.getty.edu/tgn/1025438>,Bad Vöslau,,,,,,,,,,47.9667,16.2333
<http://vocab.getty.edu/tgn/1016610>,Pointe-à-Pitre,,,,,,,,,,16.2333,-61.5333
<http://vocab.getty.edu/tgn/1000102>,Srbija-Crna Gora,"""erbia and Montenegr""@en","""erbien und Montenegr""@de",,"""erbie-et-Monténégr""@fr",,,,"""erbia y Montenegr""@es",,44,21
<http://vocab.getty.edu/tgn/1000069>,Suomi,"""inlan""@en",,,"""inland""@fr",,,"""инлянди""@ru","""inlandi""@es",,64,26
<http://vocab.getty.edu/tgn/1003640>,Salford,"""alfor""@en",,,,,,,,,53.5,-2.2667
<http://vocab.getty.edu/tgn/1001643>,Caltanissetta,,,,,,,,,,37.4,14.166667
<http://vocab.getty.edu/tgn/1001753>,Siracusa,,,,,,,,,,37.05,15
<http://vocab.getty.edu/tgn/1003478>,Novara,,,,,,,,,,45.966667,8.4
<http://vocab.getty.edu/tgn/1003483>,Pesaro e Urbino,,,,,,,,,,43.666667,12.633333
<http://vocab.getty.edu/tgn/1003440>,Bolzano,,,,,,,,,,46.716667,11.5
<http://vocab.getty.edu/tgn/1000080>,Italia,"""tal""@en","""talie""@de","""tali""@it","""tali""@fr",,,"""тали""@ru","""tali""@es",,42.8333,12.8333
<http://vocab.getty.edu/tgn/1025444>,Berndorf,,,,,,,,,,47.9667,16.1333
<http://vocab.getty.edu/tgn/1031304>,Hyvinkää,,,,,,,,,,60.6167,24.8333
<http://vocab.getty.edu/tgn/1027507>,Rudolfov,,,,,,,,,,48.9833,14.5333
<http://vocab.getty.edu/tgn/1027344>,Litvínov,,,,,,,,,,50.6167,13.6
<http://vocab.getty.edu/tgn/1025990>,Rauris,,,,,,,,,,47.2333,13
<http://vocab.getty.edu/tgn/1028579>,Bowdon,"""owdo""@en",,,,,,,,,53.366667,-2.366667
<http://vocab.getty.edu/tgn/1025751>,Längenfeld,,,,,,,,,,47.0833,10.9667
<http://vocab.getty.edu/tgn/1025644>,Hard,,,,,,,,,,47.4833,9.7
<http://vocab.getty.edu/tgn/1027299>,Kraslice,,,,,,,,,,50.35,12.5167
<http://vocab.getty.edu/tgn/1026013>,Saalfelden,,,,,,,,,,47.4333,12.8667
<http://vocab.getty.edu/tgn/1025669>,Hohenems,,,,,,,,,,47.3833,9.7167
<http://vocab.getty.edu/tgn/1025533>,Felixdorf,,,,,,,,,,47.8833,16.25
<http://vocab.getty.edu/tgn/1025956>,Pottendorf,,,,,,,,,,47.9167,16.3833
<http://vocab.getty.edu/tgn/1030739>,Staplehurst,"""taplehurs""@en",,,,,,,,,51.15,0.55
<http://vocab.getty.edu/tgn/1029764>,Knebworth,"""nebwort""@en",,,,,,,,,51.866667,-0.2
<http://vocab.getty.edu/tgn/1028299>,Altrincham,"""ltrincha""@en",,,,,,,,,53.383333,-2.35
<http://vocab.getty.edu/tgn/1025948>,Pians,,,,,,,,,,47.1333,10.5
<http://vocab.getty.edu/tgn/1025649>,Heidenreichstein,,,,,,,,,,48.8833,15.1333
<http://vocab.getty.edu/tgn/1026247>,Wolfurt,,,,,,,,,,47.4667,9.75
<http://vocab.getty.edu/tgn/1029577>,Hoddesdon,,,,,,,,,,51.7667,-0.0167
<http://vocab.getty.edu/tgn/1030747>,Stockbridge,"""tockbridg""@en",,,,,,,,,51.1,-1.483333
<http://vocab.getty.edu/tgn/1027461>,Pelhřimov,,,,,,,,,,49.4333,15.2167
<http://vocab.getty.edu/tgn/1030472>,Rugby,"""ugb""@en",,,,,,,,,52.366667,-1.25
<http://vocab.getty.edu/tgn/1030297>,Pendlebury,"""endlebur""@en",,,,,,,,,53.516667,-2.333333
<http://vocab.getty.edu/tgn/1026018>,Sankt Andrä,,,,,,,,,,46.7667,14.8167
<http://vocab.getty.edu/tgn/1025900>,Obergurgl,,,,,,,,,,46.8667,11.0333
<http://vocab.getty.edu/tgn/1026051>,Sankt Veit an der Glan,,,,,,,,,,46.7667,14.35
<http://vocab.getty.edu/tgn/1026030>,Sankt Johann im Pongau,,,,,,,,,,47.35,13.2
<http://vocab.getty.edu/tgn/1029037>,Denham,,,,,,,,,,51.566667,-0.5
<http://vocab.getty.edu/tgn/1027169>,Dvůr Králové,,,,,,,,,,50.45,15.8333
<http://vocab.getty.edu/tgn/1030744>,Stevenage,"""tevenag""@en",,,,,,,,,51.916667,-0.216667
<http://vocab.getty.edu/tgn/1027273>,Kladno,,,,,,,,,,50.1667,14.1167
<http://vocab.getty.edu/tgn/1030136>,New Alresford,"""ew Alresfor""@en",,,,,,,,,51.083333,-1.166667
<http://vocab.getty.edu/tgn/1028585>,Boxmoor,,,,,,,,,,51.7333,-0.4833
<http://vocab.getty.edu/tgn/1025805>,Möllersdorf,,,,,,,,,,48.0333,16.3
<http://vocab.getty.edu/tgn/1025456>,Bludenz,,,,,,,,,,47.1667,9.8333
<http://vocab.getty.edu/tgn/1027370>,Mariánské Lázně,,,,,,,,,,49.8,12.75
<http://vocab.getty.edu/tgn/1027016>,Červený Kostelec,,,,,,,,,,50.4833,16.1
<http://vocab.getty.edu/tgn/1025977>,Radstadt,,,,,,,,,,47.3833,13.4667
<http://vocab.getty.edu/tgn/1025984>,Rankweil,,,,,,,,,,47.2833,9.6667
<http://vocab.getty.edu/tgn/1031182>,Woking,"""okin""@en",,,,,,,,,51.316667,-0.533333
<http://vocab.getty.edu/tgn/1027394>,Moravská Třebová,,,,,,,,,,49.7833,16.6667
<http://vocab.getty.edu/tgn/1027423>,Nové Město nad Metují,,,,,,,,,,50.354135,16.139448
<http://vocab.getty.edu/tgn/1025641>,Hall in Tirol,,,,,,,,,,47.2833,11.5167
<http://vocab.getty.edu/tgn/1029771>,Knutsford,,,,,,,,,,53.3,-2.366667
<http://vocab.getty.edu/tgn/1030208>,Northiam,"""orthia""@en",,,,,,,,,50.983333,0.6
<http://vocab.getty.edu/tgn/1025625>,Höchst,,,,,,,,,,47.4667,9.6333
<http://vocab.getty.edu/tgn/1028596>,Braintree,,,,,,,,,,51.883333,0.566667
<http://vocab.getty.edu/tgn/1029655>,Ide Hill,"""de Hil""@en",,,,,,,,,51.25,0.1333
<http://vocab.getty.edu/tgn/1028909>,Colnbrook,"""olnbroo""@en",,,,,,,,,51.466667,-0.516667
<http://vocab.getty.edu/tgn/1027519>,Senec,,,,,,,,,,48.2167,17.4167
<http://vocab.getty.edu/tgn/1030643>,Skelmersdale,"""kelmersdal""@en",,,,,,,,,53.533333,-2.8
<http://vocab.getty.edu/tgn/1028481>,Bideford,"""idefor""@en",,,,,,,,,51.016667,-4.216667
<http://vocab.getty.edu/tgn/1028966>,Crawley,"""rawle""@en",,,,,,,,,51.116667,-0.183333
<http://vocab.getty.edu/tgn/1027710>,Askov,,,,,,,,,,55.4667,9.1167
<http://vocab.getty.edu/tgn/1029749>,Kirkbymoorside,,,,,,,,,,54.266667,-0.933333
<http://vocab.getty.edu/tgn/1030660>,Solihull,"""olihul""@en",,,,,,,,,52.416667,-1.783333
<http://vocab.getty.edu/tgn/1026396>,Diksmuide,,,,,,,,,,51.032483,2.863836
<http://vocab.getty.edu/tgn/1026252>,Zürs,,,,,,,,,,47.1667,10.1667
<http://vocab.getty.edu/tgn/1026347>,Bouillon,,,,,,,,,,49.8,5.066667
<http://vocab.getty.edu/tgn/1026007>,Rottenmann,,,,,,,,,,47.5333,14.3833
<http://vocab.getty.edu/tgn/1031061>,West Malling,"""est Mallin""@en",,,,,,,,,51.283333,0.416667
<http://vocab.getty.edu/tgn/1026264>,Zwentendorf,,,,,,,,,,48.35,15.9167
<http://vocab.getty.edu/tgn/1027215>,Hrádek nad Nisou,,,,,,,,,,50.85,14.85
<http://vocab.getty.edu/tgn/1028875>,Cleckheaton,"""leckheato""@en-gb",,,,,,,,,53.716667,-1.716667
<http://vocab.getty.edu/tgn/1027418>,Nova Paka,,,,,,,,,,50.5,15.5
<http://vocab.getty.edu/tgn/1026348>,Boussu,,,,,,,,,,50.433333,3.8
<http://vocab.getty.edu/tgn/1025938>,Perchtoldsdorf,,,,,,,,,,48.1333,16.2833
<http://vocab.getty.edu/tgn/1028322>,Arley,,,,,,,,,,53.3167,-2.5
<http://vocab.getty.edu/tgn/1027506>,Ružomberok,,,,,,,,,,49.0667,19.25
<http://vocab.getty.edu/tgn/1027426>,Nové Sedlo,,,,,,,,,,50.2167,12.7333
<http://vocab.getty.edu/tgn/1025825>,Maria Enzersdorf,,,,,,,,,,48.1,16.2833
<http://vocab.getty.edu/tgn/1026842>,Asenovgrad,,,,,,,,,,42,24.8833
<http://vocab.getty.edu/tgn/1025721>,Kirchberg,,,,,,,,,,48.45,15.9
<http://vocab.getty.edu/tgn/1026393>,Deurne,,,,,,,,,,51.221343,4.465948
<http://vocab.getty.edu/tgn/1026209>,Wattens,,,,,,,,,,47.3,11.6167
<http://vocab.getty.edu/tgn/1025618>,Gunskirchen,,,,,,,,,,48.1333,12.9667
<http://vocab.getty.edu/tgn/1025677>,Horn,,,,,,,,,,48.6667,15.6667
<http://vocab.getty.edu/tgn/1025696>,Köflach,,,,,,,,,,47.0667,15.0667
<http://vocab.getty.edu/tgn/1027291>,Kostelec nad Labem,,,,,,,,,,50.2333,14.6
<http://vocab.getty.edu/tgn/1025502>,Ehrwald,,,,,,,,,,47.4,10.9333
<http://vocab.getty.edu/tgn/1026020>,Sankt Anton am Arlberg,,,,,,,,,,47.1333,10.2667
<http://vocab.getty.edu/tgn/1026367>,Chaudfontaine,,,,,,,,,,50.583333,5.633333
<http://vocab.getty.edu/tgn/1028961>,Cranbrook,"""ranbroo""@en",,,,,,,,,51.083333,0.533333
<http://vocab.getty.edu/tgn/1030976>,Wallasey,"""allase""@en",,,,,,,,,53.433333,-3.066667
<http://vocab.getty.edu/tgn/1025894>,Nofels,,,,,,,,,,47.2667,9.5833
<http://vocab.getty.edu/tgn/1031011>,Washington,"""ashingto""@en",,,,,,,,,54.9,-1.516667
<http://vocab.getty.edu/tgn/1027565>,Svatava,,,,,,,,,,50.1833,12.6333
<http://vocab.getty.edu/tgn/1030741>,Staveley,,,,,,,,,,53.266667,-1.35
<http://vocab.getty.edu/tgn/1025803>,Mödling,,,,,,,,,,48.0667,16.3667
<http://vocab.getty.edu/tgn/1025801>,Lustenau,,,,,,,,,,47.4333,9.7
<http://vocab.getty.edu/tgn/1031273>,Ekenäs,,,,,,,,,,60,23.5
<http://vocab.getty.edu/tgn/1025632>,Haag am Hausruck,,,,,,,,,,48.1833,13.6333
<http://vocab.getty.edu/tgn/1029209>,Fairseat,,,,,,,,,,51.3333,0.3333
<http://vocab.getty.edu/tgn/1027001>,Ústí nad Labem,"""stí nad Labe""@en","""ussi""@de",,,,,,,,50.6833,14
<http://vocab.getty.edu/tgn/1026231>,Wiener Neudorf,,,,,,,,,,48.0833,16.3167
<http://vocab.getty.edu/tgn/1026159>,Trins,,,,,,,,,,47.0833,11.4167
<http://vocab.getty.edu/tgn/1028342>,Ashton upon Mersey,,,,,,,,,,53.4333,-2.3167
<http://vocab.getty.edu/tgn/1025638>,Hainburg an der Donau,,,,,,,,,,48.15,16.95
<http://vocab.getty.edu/tgn/1026416>,Essen,,,,,,,,,,51.466667,4.466667
<http://vocab.getty.edu/tgn/1046162>,Positano,,,,,,,,,,40.633333,14.483333
<http://vocab.getty.edu/tgn/1044085>,Castiglione della Pescaia,,,,,,,,,,42.766667,10.883333
<http://vocab.getty.edu/tgn/1039568>,Bad Herrenalb,,,,,,,,,,48.8,8.433333
<http://vocab.getty.edu/tgn/1039800>,Kaisersesch,,,,,,,,,,50.233333,7.15
<http://vocab.getty.edu/tgn/1038183>,Altenmarkt,,,,,,,,,,48,12.533333
<http://vocab.getty.edu/tgn/1031656>,Épinay-sous-Sénart,,,,,,,,,,48.689701,2.511863
<http://vocab.getty.edu/tgn/1041242>,Sinzig,,,,,,,,,,50.55,7.25
<http://vocab.getty.edu/tgn/1046271>,Rho,,,,,,,,,,45.533333,9.033333
<http://vocab.getty.edu/tgn/1031555>,Seinäjoki,,,,,,,,,,62.75,22.9167
<http://vocab.getty.edu/tgn/1045628>,Muggiò,,,,,,,,,,45.583333,9.216667
<http://vocab.getty.edu/tgn/1042033>,Itháki,"""thac""@en",,,,,,,,,38.360278,20.716111
<http://vocab.getty.edu/tgn/1031405>,Kuortane,,,,,,,,,,62.8,23.5
<http://vocab.getty.edu/tgn/1043764>,Camogli,,,,,,,,,,44.35,9.15
<http://vocab.getty.edu/tgn/1044500>,Domodossola,,,,,,,,,,46.116667,8.283333
<http://vocab.getty.edu/tgn/1041165>,Schwarzenbach am Wald,,,,,,,,,,50.2833,11.6167
<http://vocab.getty.edu/tgn/1042072>,Khíos,"""hio""@en",,,,,,,,,38.367778,26.135833
<http://vocab.getty.edu/tgn/1032295>,Brétigny-sur-Orge,"""rétigny-sur-Org""@en",,,,,,,,,48.61892,2.309158
<http://vocab.getty.edu/tgn/1036356>,Apolda,,,,,,,,,,51.016667,11.5
<http://vocab.getty.edu/tgn/1045174>,Madonna di Campiglio,,,,,,,,,,46.233333,10.816667
<http://vocab.getty.edu/tgn/1045169>,Macugnaga,,,,,,,,,,45.966667,7.966667
<http://vocab.getty.edu/tgn/1044346>,Comeglians,,,,,,,,,,46.516667,12.86
<http://vocab.getty.edu/tgn/1046206>,Procida,,,,,,,,,,40.766667,14.033333
<http://vocab.getty.edu/tgn/1046135>,Port'Ercole,,,,,,,,,,42.383333,11.2
<http://vocab.getty.edu/tgn/1031474>,Nokia,,,,,,,,,,61.4667,23.5
<http://vocab.getty.edu/tgn/1036448>,Bernau bei Berlin,,,,,,,,,,52.6667,13.5833
<http://vocab.getty.edu/tgn/1038147>,Alken,,,,,,,,,,50.25,7.45
<http://vocab.getty.edu/tgn/1038166>,Altdorf,,,,,,,,,,49.3875,11.357222
<http://vocab.getty.edu/tgn/1043457>,Bellagio,,,,,,,,,,45.983333,9.25
<http://vocab.getty.edu/tgn/1043110>,Adro,,,,,,,,,,45.616667,9.95
<http://vocab.getty.edu/tgn/1039144>,Friedrichsthal,,,,,,,,,,49.316667,7.1
<http://vocab.getty.edu/tgn/1032522>,Châtillon,,,,,,,,,,48.802396,2.293464
<http://vocab.getty.edu/tgn/1032687>,Clamart,,,,,,,,,,48.802987,2.266917
<http://vocab.getty.edu/tgn/1032999>,Eaubonne,,,,,,,,,,48.997124,2.282494
<http://vocab.getty.edu/tgn/1031809>,Antrain,,,,,,,,,,48.460308,-1.483536
<http://vocab.getty.edu/tgn/1046205>,Procchio,,,,,,,,,,42.783333,10.25
<http://vocab.getty.edu/tgn/1031312>,Imatra,,,,,,,,,,61.2333,28.8333
<http://vocab.getty.edu/tgn/1032050>,Beaucourt,,,,,,,,,,47.489902,6.924071
<http://vocab.getty.edu/tgn/1044187>,Cesate,,,,,,,,,,45.6,9.0833
<http://vocab.getty.edu/tgn/1041956>,Akharnai,,,,,,,,,,38.083333,23.733333
<http://vocab.getty.edu/tgn/1038251>,Attendorn,,,,,,,,,,51.116667,7.9
<http://vocab.getty.edu/tgn/1043765>,Campagna,,,,,,,,,,40.666667,15.1
<http://vocab.getty.edu/tgn/1031490>,Paimio,,,,,,,,,,60.45,22.7
<http://vocab.getty.edu/tgn/1032405>,Cancale,,,,,,,,,,48.676011,-1.852306
<http://vocab.getty.edu/tgn/1031548>,Säynätsalo,,,,,,,,,,62.15,25.7
<http://vocab.getty.edu/tgn/1040322>,Merzig,,,,,,,,,,49.45,6.633333
<http://vocab.getty.edu/tgn/1038420>,Barmstedt,,,,,,,,,,53.783333,9.766667
<http://vocab.getty.edu/tgn/1045403>,Misinto,,,,,,,,,,45.65,9.083333
<http://vocab.getty.edu/tgn/1031500>,Seinäjoki,,,,,,,,,,62.5667,23.0833
<http://vocab.getty.edu/tgn/1036449>,Bernburg,,,,,,,,,,51.8,11.733333
<http://vocab.getty.edu/tgn/1046080>,Pompei,,,,,,,,,,40.75,14.5
<http://vocab.getty.edu/tgn/1032495>,Châteaubriant,,,,,,,,,,47.717,-1.379335
<http://vocab.getty.edu/tgn/1044429>,Crevola d'Ossola,,,,,,,,,,46.15,8.3
<http://vocab.getty.edu/tgn/1045665>,Nichelino,,,,,,,,,,44.983333,7.633333
<http://vocab.getty.edu/tgn/1032431>,Carros,,,,,,,,,,43.789413,7.18395
<http://vocab.getty.edu/tgn/1031799>,Annet-sur-Marne,,,,,,,,,,48.926692,2.719586
<http://vocab.getty.edu/tgn/1033432>,Herblay,,,,,,,,,,48.989935,2.169902
<http://vocab.getty.edu/tgn/1031485>,Oulu,,,,,,,,,,65,25.4333
<http://vocab.getty.edu/tgn/1032951>,Domont,,,,,,,,,,49.027821,2.326384
<http://vocab.getty.edu/tgn/1042203>,Sérifos,,,,,,,,,"""érifo""@el-latn",37.15,24.5
<http://vocab.getty.edu/tgn/1045746>,Omegna,,,,,,,,,,45.883333,8.4
<http://vocab.getty.edu/tgn/1043789>,Campodolcino,,,,,,,,,,46.4,9.35
<http://vocab.getty.edu/tgn/1032664>,Chevilly-Larue,,,,,,,,,,48.76476,2.350297
<http://vocab.getty.edu/tgn/1044294>,Cles,,,,,,,,,,46.366667,11.033333
<http://vocab.getty.edu/tgn/1046093>,Ponte San Pietro,,,,,,,,,,45.7,9.583333
<http://vocab.getty.edu/tgn/1042068>,Kavála,,,,,,,,,"""avál""@el-latn",40.939722,24.401944
<http://vocab.getty.edu/tgn/1042794>,Enniscorthy,"""nniscorth""@en",,,,,,,,,52.500833,-6.557778
<http://vocab.getty.edu/tgn/1044618>,Fiuggi,,,,,,,,,,41.8,13.216667
<http://vocab.getty.edu/tgn/1038365>,Bad Rappenau,,,,,,,,,,49.240556,9.1025
<http://vocab.getty.edu/tgn/1045256>,Marina di Campo,,,,,,,,,,42.733333,10.233333
<http://vocab.getty.edu/tgn/1043863>,Capri,,,,,,,,,,40.55,14.233333
<http://vocab.getty.edu/tgn/1044226>,Chiusa,,"""lause""@de","""hius""@it",,,,,,,46.633333,11.566667
<http://vocab.getty.edu/tgn/1043559>,Boretto,,,,,,,,,,44.9,10.55
<http://vocab.getty.edu/tgn/1046085>,Pont-Saint-Martin,,,,,,,,,,45.6,7.8
<http://vocab.getty.edu/tgn/1043725>,Calatafimi,,,,,,,,,,37.916667,12.866667
<http://vocab.getty.edu/tgn/1031550>,Salo,,,,,,,,,,60.3833,23.1667
<http://vocab.getty.edu/tgn/1043749>,Caluso,,,,,,,,,,45.3,7.883333
<http://vocab.getty.edu/tgn/1041929>,Gibraltar,,,,,,,,,,36.15,-5.35
<http://vocab.getty.edu/tgn/1038187>,Altenvoërde,,,,,,,,,,51.3,7.3833
<http://vocab.getty.edu/tgn/1042755>,Donegal,"""onega""@en",,,,,,,,,54.65,-8.116667
<http://vocab.getty.edu/tgn/1032215>,Bonneuil-sur-Marne,,,,,,,,,,48.769502,2.479295
<http://vocab.getty.edu/tgn/1031900>,Audierne,,,,,,,,,,48.023475,-4.542078
<http://vocab.getty.edu/tgn/1043827>,Cannero Riviera,,,,,,,,,,46.016667,8.683333
<http://vocab.getty.edu/tgn/1042201>,Sámos,,,,,,,,,"""ámo""@el-latn",37.757222,26.976944
<http://vocab.getty.edu/tgn/1036393>,Bad Langensalza,,,,,,,,,,51.1,10.65
<http://vocab.getty.edu/tgn/1045262>,Marina di Massa,,,,,,,,,,44,10.1
<http://vocab.getty.edu/tgn/1031395>,Kotka,,,,,,,,,,60.4333,26.9167
<http://vocab.getty.edu/tgn/1038561>,Blieskastel,,,,,,,,,,49.233333,7.25
<http://vocab.getty.edu/tgn/1042055>,Kallithéa,,,,,,,,,"""allithé""@el-latn",37.95,23.7
<http://vocab.getty.edu/tgn/1043264>,Arco,,,,,,,,,,45.916667,10.883333
<http://vocab.getty.edu/tgn/1046154>,Portofino,,,,,,,,,,44.3,9.2
<http://vocab.getty.edu/tgn/1039918>,Konz,,,,,,,,,,49.7,6.583333
<http://vocab.getty.edu/tgn/1032186>,Bobigny,,,,,,,,,,48.909825,2.45012
<http://vocab.getty.edu/tgn/1044499>,Domegge di Cadore,,,,,,,,,,46.460278,12.417222
<http://vocab.getty.edu/tgn/1039309>,Grünstadt,,,,,,,,,,49.569167,8.168056
<http://vocab.getty.edu/tgn/1045827>,Paesana,,,,,,,,,,44.683333,7.266667
<http://vocab.getty.edu/tgn/1044679>,Forte dei Marmi,,,,,,,,,,43.95,10.166667
<http://vocab.getty.edu/tgn/1039869>,Kirchen,,,,,,,,,,50.8,7.883333
<http://vocab.getty.edu/tgn/1039957>,Kusel,,,,,,,,,,49.55,7.4
<http://vocab.getty.edu/tgn/1033185>,Franconville,,,,,,,,,,48.983333,2.233333
<http://vocab.getty.edu/tgn/1042081>,Kifisiá,,,,,,,,,"""ifisi""@el-latn",38.066667,23.816667
<http://vocab.getty.edu/tgn/1063676>,Strömstad,,,,,,,,,,58.9333,11.1833
<http://vocab.getty.edu/tgn/1046476>,San Cataldo,,,,,,,,,,37.483333,13.983333
<http://vocab.getty.edu/tgn/1049533>,Tczew,,,,,,,,,,54.0833,18.7667
<http://vocab.getty.edu/tgn/1047597>,Aardenburg,,,,,,,,,,51.283333,3.45
<http://vocab.getty.edu/tgn/1062213>,Marbella,,,,,,,,,,36.516667,-4.883333
<http://vocab.getty.edu/tgn/1063301>,Lidingö,,,,,,,,,,59.3667,18.1667
<http://vocab.getty.edu/tgn/1063143>,Hudiksvall,,,,,,,,,,61.75,17.1667
<http://vocab.getty.edu/tgn/1051248>,Chelyabinsk,,,,,,,,,,55.2,61.4167
<http://vocab.getty.edu/tgn/1059674>,Spitak,"""pita""@en",,,,,,,,,40.837,44.271
<http://vocab.getty.edu/tgn/1046831>,Segrate,,,,,,,,,,45.483333,9.283333
<http://vocab.getty.edu/tgn/1063688>,Sundsvall,,,,,,,,,,62.3667,17.3333
<http://vocab.getty.edu/tgn/1047683>,Brunssum,,,,,,,,,,50.95,5.966667
<http://vocab.getty.edu/tgn/1049401>,Racibórz,,,,,,,,,,50.0833,18.1667
<http://vocab.getty.edu/tgn/1058004>,Orel,,,,,,,,,,52.9667,36.0667
<http://vocab.getty.edu/tgn/1058952>,Rodionovo-Nesvetayskaya,,,,,,,,,,47.6,39.7
<http://vocab.getty.edu/tgn/1047706>,De Lier,,,,,,,,,,51.966667,4.266667
<http://vocab.getty.edu/tgn/1058042>,Orsk,,,,,,,,,,51.2167,58.5833
<http://vocab.getty.edu/tgn/1050641>,East Kilbride,"""ast Kilbrid""@en",,,,,,,,,55.766667,-4.166667
<http://vocab.getty.edu/tgn/1046276>,Riccione,,,,,,,,,,43.983333,12.65
<http://vocab.getty.edu/tgn/1047851>,Hoek van Holland,,,,,,,,,,51.983333,4.133333
<http://vocab.getty.edu/tgn/1048536>,Finse,,,,,,,,,,60.6,7.5
<http://vocab.getty.edu/tgn/1063872>,Aadorf,,"""ador""@de",,,,,,,,47.49397,8.89777
<http://vocab.getty.edu/tgn/1047536>,Schaan,,,,,,,,,,47.1667,9.5167
<http://vocab.getty.edu/tgn/1048868>,Żukowo,,,,,,,,,,54.35,18.3667
<http://vocab.getty.edu/tgn/1063627>,Sollentuna,,,,,,,,,,59.4333,17.9333
<http://vocab.getty.edu/tgn/1056987>,Mtskheta,,,,,,,,,,41.845139,44.718751
<http://vocab.getty.edu/tgn/1047109>,Tirano,,,,,,,,,,46.216667,10.166667
<http://vocab.getty.edu/tgn/1062423>,Sóller,,,,,,,,,,39.766667,2.7
<http://vocab.getty.edu/tgn/1048373>,Kilkeel,"""ilkee""@en",,,,,,,,,54.066667,-6.016667
<http://vocab.getty.edu/tgn/1049816>,Maia,,,,,,,,,,41.235,-8.62
<http://vocab.getty.edu/tgn/1049105>,Jelenia Góra,,,,,,,,,,50.9167,15.75
<http://vocab.getty.edu/tgn/1048663>,Molde,,,,,,,,,,62.7333,7.1333
<http://vocab.getty.edu/tgn/1048652>,Lysaker,,,,,,,,,,59.9,10.6
<http://vocab.getty.edu/tgn/1062696>,Örnsköldsvik,,,,,,,,,,63.3167,18.75
<http://vocab.getty.edu/tgn/1047438>,Villadeati,,,,,,,,,,45.0667,8.1667
<http://vocab.getty.edu/tgn/1048031>,Oud-Loosdrecht,,,,,,,,,,52.2,5.083333
<http://vocab.getty.edu/tgn/1049289>,Nowa Ruda,,,,,,,,,,50.5667,16.5
<http://vocab.getty.edu/tgn/1047969>,Nagele,,,,,,,,,,52.65,5.733333
<http://vocab.getty.edu/tgn/1049215>,Lubań,,,,,,,,,,51.1167,15.2833
<http://vocab.getty.edu/tgn/1059871>,Stryy,,,,,,,,,,49.2667,23.85
<http://vocab.getty.edu/tgn/1063119>,Hedemora,,,,,,,,,,60.2167,16
<http://vocab.getty.edu/tgn/1047594>,Aalsmeer,,,,,,,,,,52.266667,4.766667
<http://vocab.getty.edu/tgn/1049355>,Piaseczno,,,,,,,,,,52.05,21
<http://vocab.getty.edu/tgn/1063260>,Kungsbacka,,,,,,,,,,57.5,12.0833
<http://vocab.getty.edu/tgn/1047629>,Baarn,,,,,,,,,,52.216667,5.283333
<http://vocab.getty.edu/tgn/1047614>,Amstelveen,,,,,,,,,,52.3,4.866667
<http://vocab.getty.edu/tgn/1048549>,Geiranger,,,,,,,,,,62.1,7.2167
<http://vocab.getty.edu/tgn/1050002>,Aiud,,,,,,,,,,46.3167,23.7167
<http://vocab.getty.edu/tgn/1050576>,Cumbernauld,"""umbernaul""@en",,,,,,,,,55.95,-3.983333
<http://vocab.getty.edu/tgn/1049545>,Trzebiatów,,,,,,,,,,54.05,15.25
<http://vocab.getty.edu/tgn/1058024>,Orekhovo-Zuyevo,,,,,,,,,,55.7833,39
<http://vocab.getty.edu/tgn/1050528>,Clydebank,"""lydeban""@en",,,,,,,,,55.9,-4.4
<http://vocab.getty.edu/tgn/1062782>,Arvika,,,,,,,,,,59.6833,12.6333
<http://vocab.getty.edu/tgn/1049474>,Sopot,,,,,,,,,,54.45,18.5167
<http://vocab.getty.edu/tgn/1048937>,Bogatynia,,,,,,,,,,50.4167,14.95
<http://vocab.getty.edu/tgn/1049176>,Krapkowice,,,,,,,,,,50.4833,17.9333
<http://vocab.getty.edu/tgn/1046891>,Sestriere,,,,,,,,,,44.95,6.883333
<http://vocab.getty.edu/tgn/1062363>,Potes,,,,,,,,,,43.15,-4.616667
<http://vocab.getty.edu/tgn/1058463>,Pochinok,,,,,,,,,,54.4,32.4667
<http://vocab.getty.edu/tgn/1047532>,Balzers,,,,,,,,,,47.0667,9.5333
<http://vocab.getty.edu/tgn/1062956>,Farsta,,,,,,,,,,59.25,18.0833
<http://vocab.getty.edu/tgn/1048924>,Bielawa,,,,,,,,,,50.6833,16.6167
<http://vocab.getty.edu/tgn/1062156>,Las Rozas de Madrid,,,,,,,,,,40.483333,-3.866667
<http://vocab.getty.edu/tgn/1048309>,Banbridge,"""anbridg""@en",,,,,,,,,54.35,-6.283333
<http://vocab.getty.edu/tgn/1062569>,Torrevieja,,,,,,,,,,37.983333,-0.683333
<http://vocab.getty.edu/tgn/1047398>,Vico Equense,,,,,,,,,,40.666667,14.416667
<http://vocab.getty.edu/tgn/1049047>,Gdynia,,,,,,,,,,54.5167,18.5
<http://vocab.getty.edu/tgn/1047719>,Diemen,,,,,,,,,,52.333333,4.966667
<http://vocab.getty.edu/tgn/1047537>,Triesen,,,,,,,,,,47.1167,9.5333
<http://vocab.getty.edu/tgn/1063415>,Nacka,,,,,,,,,,59.3,18.1667
<http://vocab.getty.edu/tgn/1055388>,Klimovichi,,,,,,,,,,53.6,31.9667
<http://vocab.getty.edu/tgn/1063560>,Saltsjöbaden,,,,,,,,,,59.25,18.3333
<http://vocab.getty.edu/tgn/1063876>,Aarwangen,,,,,,,,,,47.238533,7.770042
<http://vocab.getty.edu/tgn/1050277>,Sinaia,,,,,,,,,,45.3333,25.55
<http://vocab.getty.edu/tgn/1050135>,Galaţi,,,,,,,,,,45.45,28.0333
<http://vocab.getty.edu/tgn/1047468>,Villasimius,,,,,,,,,,39.143056,9.518611
<http://vocab.getty.edu/tgn/1063877>,Acquarossa,,,"""cquaross""@it",,,,,,,46.454725,8.942607
<http://vocab.getty.edu/tgn/1062299>,Nules,,,,,,,,,,39.85,-0.15
<http://vocab.getty.edu/tgn/1050766>,Irvine,"""rvin""@en",,,,,,,,,55.6,-4.666667
<http://vocab.getty.edu/tgn/1047690>,Bussum,,,,,,,,,,52.283333,5.2
<http://vocab.getty.edu/tgn/1050874>,Livingston,"""ivingsto""@en",,,,,,,,,55.883333,-3.533333
<http://vocab.getty.edu/tgn/1048068>,Rockanje,,,,,,,,,,51.866667,4.066667
<http://vocab.getty.edu/tgn/1063049>,Gustavsberg,,,,,,,,,,59.3167,18.3833
<http://vocab.getty.edu/tgn/1047605>,Alblasserdam,,,,,,,,,,51.866667,4.666667
<http://vocab.getty.edu/tgn/1048816>,Ustaoset,,,,,,,,,,60.5,8.0333
<http://vocab.getty.edu/tgn/1046974>,Spadafora,,,,,,,,,,38.216667,15.366667
<http://vocab.getty.edu/tgn/1047280>,Valenza,,,,,,,,,,45.016667,8.633333
<http://vocab.getty.edu/tgn/1063874>,Aarberg,,,,,,,,,,47.043835,7.27357
<http://vocab.getty.edu/tgn/1054146>,Gradizhsk,,,,,,,,,,49.2167,33.1167
<http://vocab.getty.edu/tgn/1049201>,Leśna,,,,,,,,,,51.0167,15.2667
<http://vocab.getty.edu/tgn/1049039>,Głogów Małopolski,,,,,,,,,,50.15,21.9667
<http://vocab.getty.edu/tgn/1049026>,Dzierżoniów,,,,,,,,,,50.7167,16.6667
<http://vocab.getty.edu/tgn/1047566>,Mondorf-les-Bains,,,,,,,,,,49.5,6.2667
<http://vocab.getty.edu/tgn/1047702>,De Bilt,,,,,,,,,,52.116667,5.183333
<http://vocab.getty.edu/tgn/1050967>,North Queensferry,"""orth Queensferr""@en",,,,,,,,,56,-3.4
<http://vocab.getty.edu/tgn/1049130>,Kamienna Góra,,,,,,,,,,50.8,16
<http://vocab.getty.edu/tgn/1049821>,Matosinhos,,,,,,,,,,41.181,-8.689
<http://vocab.getty.edu/tgn/1049304>,Nysa,,,,,,,,,,50.5,17.3333
<http://vocab.getty.edu/tgn/1049284>,Nidzica,,,,,,,,,,53.3667,20.45
<http://vocab.getty.edu/tgn/1048855>,Świecie,,,,,,,,,,53.4167,18.4167
<http://vocab.getty.edu/tgn/7005362>,La Spezia,,,,,,,,,,44.116667,9.833333
<http://vocab.getty.edu/tgn/7004447>,Trier,,,,,,,,,,49.75,6.633333
<http://vocab.getty.edu/tgn/7005435>,San Candido,,,,,,,,,,46.740556,12.279722
<http://vocab.getty.edu/tgn/7003862>,Acireale,,,,,,,,,,37.616667,15.166667
<http://vocab.getty.edu/tgn/7005758>,Monaco,"""onac""@en",,"""onac""@it","""onac""@fr",,,"""онак""@ru","""ónac""@es",,43.7333,7.4167
<http://vocab.getty.edu/tgn/7003904>,Milazzo,,,,,,,,,,38.216667,15.233333
<http://vocab.getty.edu/tgn/7004929>,Rimini,,,,,,,,,,44.063333,12.580833
<http://vocab.getty.edu/tgn/7005123>,Terni,,,,,,,,,,42.566667,12.616667
<http://vocab.getty.edu/tgn/7005764>,Brescia,,,,,,,,,,45.55,10.25
<http://vocab.getty.edu/tgn/7003994>,Urbino,,,,,,,,,,43.716667,12.633333
<http://vocab.getty.edu/tgn/7005529>,Monfalcone,,,,,,,,,,45.807222,13.534167
<http://vocab.getty.edu/tgn/7004610>,Basilicata,,,"""asilicat""@it",,,,,,,40.5,16.1667
<http://vocab.getty.edu/tgn/7005172>,Baden-Baden,"""aden-Bade""@en","""aden-Bade""@de",,,,,,,,48.75,8.25
<http://vocab.getty.edu/tgn/7003943>,Timișoara,,,,,,,,,,45.75,21.25
<http://vocab.getty.edu/tgn/7005693>,Ivrea,,,,,,,,,,45.466667,7.866667
<http://vocab.getty.edu/tgn/7004597>,Modena,,,,,,,,,,44.5,10.9
<http://vocab.getty.edu/tgn/7005025>,Bergamo,,,,,,,,,,45.683333,9.716667
<http://vocab.getty.edu/tgn/7004939>,Piacenza,,,,,,,,,,45.016667,9.666667
<http://vocab.getty.edu/tgn/7005432>,Merano,,,"""eran""@it",,,,,,,46.666667,11.15
<http://vocab.getty.edu/tgn/7005852>,Como,,,,,,,,,,45.983333,9.216667
<http://vocab.getty.edu/tgn/7005551>,Mels,,,,,,,,,,47.046742,9.421702
<http://vocab.getty.edu/tgn/7004248>,Maratea,,,,,,,,,,39.983333,15.716667
<http://vocab.getty.edu/tgn/7004871>,Riola,,,,,,,,,,44.266667,11.066667
<http://vocab.getty.edu/tgn/7005824>,Vertova,,,,,,,,,,45.8,9.833333
<http://vocab.getty.edu/tgn/7004269>,Sibiu,,,,,,,,,,45.7667,24.15
<http://vocab.getty.edu/tgn/7005434>,Vipiteno,,,,,,,,,,46.9,11.433333
<http://vocab.getty.edu/tgn/7005628>,Altenau,,,,,,,,,,51.8,10.45
<http://vocab.getty.edu/tgn/7003851>,Castelvetrano,,,,,,,,,,37.683333,12.783333
<http://vocab.getty.edu/tgn/7004417>,Neustadt an der Weinstrasse,"""eustadt an der Weinstrass""@en",,,,,,,,,49.356667,8.137778
<http://vocab.getty.edu/tgn/7004128>,Tîrgu Jiu,,,,,,,,,,45.05,23.3
<http://vocab.getty.edu/tgn/7004545>,Guadeloupe,"""uadeloup""@en",,,,,,,,,16.25,-61.5833
<http://vocab.getty.edu/tgn/7005286>,Bremen,,"""reme""@de",,,,,,,,53.083333,8.8
<http://vocab.getty.edu/tgn/7004578>,Nocera Inferiore,,,,,,,,,,40.733333,14.633333
<http://vocab.getty.edu/tgn/7004658>,Pompeii,,,,,,,,,,40.75,14.4833
<http://vocab.getty.edu/tgn/7004847>,Bologna,,,,,,,,,,44.507,11.351
<http://vocab.getty.edu/tgn/7005657>,Stresa,,,,,,,,,,45.883333,8.533333
<http://vocab.getty.edu/tgn/7004264>,Ferrara,,,,,,,,,,44.833333,11.583333
<http://vocab.getty.edu/tgn/7004393>,Benevento,,,,,,,,,,41.133333,14.75
<http://vocab.getty.edu/tgn/7005688>,Torino,"""uri""@en",,,,,,,,,45.05,7.666667
<http://vocab.getty.edu/tgn/7005108>,Worms,,,,,,,,,,49.635556,8.359722
<http://vocab.getty.edu/tgn/7003936>,Monreale,,,,,,,,,,38.083333,13.283333
<http://vocab.getty.edu/tgn/7004648>,Sorrento,,,"""orrent""@it",,,,,,,40.616667,14.366667
<http://vocab.getty.edu/tgn/7005354>,San Remo,,,,,,,,,,43.816667,7.766667
<http://vocab.getty.edu/tgn/7004448>,Koblenz,"""oblen""@en",,,,,,,,,50.35,7.6
<http://vocab.getty.edu/tgn/7005125>,Alessandria,,,,,,,,,,44.9,8.616667
<http://vocab.getty.edu/tgn/7004922>,Cesena,,,,,,,,,,44.143333,12.249722
<http://vocab.getty.edu/tgn/7003902>,Taormina,"""aormin""@en",,"""aormin""@it",,,,,,,37.85,15.283333
<http://vocab.getty.edu/tgn/7004278>,Cluj,,,,,,,,,,46.75,23.5833
<http://vocab.getty.edu/tgn/7004942>,Parma,,,,,,,,,,44.8,10.333333
<http://vocab.getty.edu/tgn/7004449>,Mainz,"""ain""@en",,,,,,,,,50,8.271111
<http://vocab.getty.edu/tgn/7005658>,Oleggio,,,,,,,,,,45.6,8.633333
<http://vocab.getty.edu/tgn/7005743>,Birkirkara,,,,,,,,,,35.9,14.4833
<http://vocab.getty.edu/tgn/7003980>,Ancona,,,,,,,,,,43.633333,13.5
<http://vocab.getty.edu/tgn/7004025>,Ascoli Piceno,,,,,,,,,,42.85,13.566667
<http://vocab.getty.edu/tgn/7004228>,Potenza,,,,,,,,,,40.633333,15.8
<http://vocab.getty.edu/tgn/7004274>,Cosenza,,,,,,,,,,39.3,16.25
<http://vocab.getty.edu/tgn/7005517>,Brione,,,"""rion""@it",,,,,,,46.295251,8.791727
<http://vocab.getty.edu/tgn/7005287>,Bremerhaven,,"""esermünd""@de",,,,,,,,53.55,8.583333
<http://vocab.getty.edu/tgn/7005100>,Neuwied,"""euwie""@en",,,,,,,,,50.433333,7.466667
<http://vocab.getty.edu/tgn/7005433>,Bressanone,,,,,,,,,,46.716667,11.65
<http://vocab.getty.edu/tgn/7003837>,Extremadura,,,,,,,,,,39.25,-6.25
<http://vocab.getty.edu/tgn/7004967>,Bolzano,,,,,,,,,,46.516667,11.366667
<http://vocab.getty.edu/tgn/7005539>,Trieste,,,,,,,,,,45.648611,13.78
<http://vocab.getty.edu/tgn/7005436>,Brunico,,,,,,,,,,46.8,11.933333
<http://vocab.getty.edu/tgn/7003947>,Catania,,,,,,,,,,37.5,15.1
<http://vocab.getty.edu/tgn/7003848>,Selinunte,,,,,,,,,,37.5833,12.8333
<http://vocab.getty.edu/tgn/7005653>,Orta San Giulio,,,,,,,,,,45.8,8.416667
<http://vocab.getty.edu/tgn/7004799>,Aachen,"""ache""@en",,,,,,,,,50.770833,6.105278
<http://vocab.getty.edu/tgn/7005330>,Pegli,,,,,,,,,,44.433,8.8
<http://vocab.getty.edu/tgn/7005447>,Rovereto,,,,,,,,,,45.883333,11.033333
<http://vocab.getty.edu/tgn/7004581>,Ravello,,,,,,,,,,40.65,14.616667
<http://vocab.getty.edu/tgn/7005289>,Hamburg,,"""ambur""@de",,"""ambour""@fr",,,,,,53.55,10
<http://vocab.getty.edu/tgn/7004474>,Napoli,"""aple""@en",,,,,,,,,40.833333,14.25
<http://vocab.getty.edu/tgn/7005181>,Bad Mergentheim,,,,,,,,,,49.4925,9.773611
<http://vocab.getty.edu/tgn/7003931>,Cefalù,"""efal""@en",,"""efal""@it",,,,,,,38.033333,14.016667
<http://vocab.getty.edu/tgn/7005759>,Monte Carlo,,,,,,,,,,43.7333,7.4167
<http://vocab.getty.edu/tgn/7005124>,Orvieto,,,"""rviet""@it",,,,,,,42.716667,12.116667
<http://vocab.getty.edu/tgn/7005023>,Bergamo,,,,,,,,,,45.833333,9.8
<http://vocab.getty.edu/tgn/7005652>,Novara,,,,,,,,,,45.466667,8.633333
<http://vocab.getty.edu/tgn/7005048>,Gubbio,,,,,,,,,,43.35,12.583333
<http://vocab.getty.edu/tgn/7004516>,Baia,,,,,,,,,,40.816667,14.066667
<http://vocab.getty.edu/tgn/7005339>,Rapallo,,,,,,,,,,44.35,9.233333
<http://vocab.getty.edu/tgn/7005729>,Malta,"""alt""@en",,"""alt""@it","""alt""@fr",,,"""альт""@ru","""alt""@es",,35.9167,14.4167
<http://vocab.getty.edu/tgn/7004101>,Bari,,,,,,,,,,41.133333,16.85
<http://vocab.getty.edu/tgn/7005732>,Valletta,,,,,,,,,,35.9,14.5333
<http://vocab.getty.edu/tgn/7005060>,Pistoia,,,,,,,,,,43.916667,10.9
<http://vocab.getty.edu/tgn/7005109>,Deidesheim,,,,,,,,,,49.409167,8.187778
<http://vocab.getty.edu/tgn/7004595>,Benevento,,,,,,,,,,41.25,14.283333
<http://vocab.getty.edu/tgn/7005371>,Savona,,,,,,,,,,44.283333,8.5
<http://vocab.getty.edu/tgn/7005119>,Assisi,,,,,,,,,,43.066667,12.616667
<http://vocab.getty.edu/tgn/7005765>,Brescia,,,,,,,,,,45.633333,10.3
<http://vocab.getty.edu/tgn/7005020>,Reggio nell'Emilia,,,,,,,,,,44.716667,10.6
<http://vocab.getty.edu/tgn/7004090>,Lecce,,,,,,,,,,40.383333,18.183333
<http://vocab.getty.edu/tgn/7005233>,Gibraltar,"""ibralta""@en",,"""ibilterr""@it",,,,,,,36.1333,-5.35
<http://vocab.getty.edu/tgn/7004272>,Brașov,,,,,,,,,,45.65,25.5833
<http://vocab.getty.edu/tgn/7003897>,Messina,,,,,,,,,,38.183333,15.566667
<http://vocab.getty.edu/tgn/7005773>,Turda,,,,,,,,,,46.5833,23.8333
<http://vocab.getty.edu/tgn/7005851>,Como,,,,,,,,,,45.783333,9.083333
<http://vocab.getty.edu/tgn/7004574>,Amalfi,,,,,,,,,,40.633333,14.6
<http://vocab.getty.edu/tgn/1063983>,Cham,,,,,,,,,,47.182126,8.463576
<http://vocab.getty.edu/tgn/1063898>,Andelfingen,,,,,,,,,,47.594829,8.679678
<http://vocab.getty.edu/tgn/1063888>,Allschwil,,,,,,,,,,47.550744,7.535994
<http://vocab.getty.edu/tgn/1063896>,Amsteg,,,,,,,,,,46.771317,8.669632
<http://vocab.getty.edu/tgn/1063987>,Charmey,,,,,,,,,,46.616223,7.168141
<http://vocab.getty.edu/tgn/1063947>,Bivio,,,"""ivi""@it",,,,,,,46.468518,9.650882
<http://vocab.getty.edu/tgn/1064025>,Dussnang,,,,,,,,,,47.4333,8.9667
<http://vocab.getty.edu/tgn/1063918>,Büren an der Aare,,,,,,,,,,47.139756,7.372197
<http://vocab.getty.edu/tgn/1063988>,Chavornay,,,,,,,,,,46.705656,6.56988
<http://vocab.getty.edu/tgn/1063897>,Andeer,,,,,,,,,,46.603867,9.426647
<http://vocab.getty.edu/tgn/1064023>,Dongio,,,"""ongi""@it",,,,,,,46.437824,8.955257
<http://vocab.getty.edu/tgn/1063973>,Camedo,,,"""amed""@it",,,,,,,46.155112,8.60859
<http://vocab.getty.edu/tgn/1064026>,Ebnat,,,,,,,,,,47.2667,9.1167
<http://vocab.getty.edu/tgn/1063974>,Campo Blenio,,,"""ampo Bleni""@it",,,,,,,46.556683,8.936367
<http://vocab.getty.edu/tgn/1063949>,Blonay,,,,,,,,,,46.465737,6.895053
<http://vocab.getty.edu/tgn/1063941>,Bière,,,,,,,,,,46.537379,6.332352
<http://vocab.getty.edu/tgn/1063904>,Arbon,,"""rbo""@de",,,,,,,,47.51594,9.43549
<http://vocab.getty.edu/tgn/1063884>,Aigle,,,,"""igl""@fr",,,,,,46.31614,6.958194
<http://vocab.getty.edu/tgn/1063928>,Baulmes,,,,,,,,,,46.790264,6.521749
<http://vocab.getty.edu/tgn/1063933>,Beinwil am See,,,,,,,,,,47.2667,8.2167
<http://vocab.getty.edu/tgn/1063958>,Breno,,,"""ren""@it",,,,,,,46.033477,8.870798
<http://vocab.getty.edu/tgn/1063916>,Bätterkinden,,,,,,,,,,47.133633,7.541035
<http://vocab.getty.edu/tgn/1063996>,Collombey,,,,"""ollombe""@fr",,,,,,46.273851,6.947887
<http://vocab.getty.edu/tgn/1063931>,Beckenried,,,,,,,,,,46.96653,8.47575
<http://vocab.getty.edu/tgn/1063986>,Chancy,,,,"""hanc""@fr",,,,,,46.149472,5.971914
<http://vocab.getty.edu/tgn/1064006>,Crassier,,,,"""rassie""@fr",,,,,,46.373591,6.166487
<http://vocab.getty.edu/tgn/1063934>,Bellelay,,,,,,,,,,47.263297,7.166579
<http://vocab.getty.edu/tgn/1063953>,Bonfol,,,,,,,,,,47.477352,7.151441
<http://vocab.getty.edu/tgn/1063902>,Aquila,,,"""quil""@it",,,,,,,46.502972,8.948181
<http://vocab.getty.edu/tgn/1064002>,Cossonay,,,,,,,,,,46.614163,6.506653
<http://vocab.getty.edu/tgn/1063966>,Brunni,,,,,,,,,,47.05,8.7167
<http://vocab.getty.edu/tgn/1063979>,Celerina,,,"""elerin""@it",,,,,,,46.512165,9.857942
<http://vocab.getty.edu/tgn/1063903>,Arbedo,,,,,,,,,,46.2167,9.05
<http://vocab.getty.edu/tgn/1064007>,Cresta,,,,,,,,,,46.473005,9.512428
<http://vocab.getty.edu/tgn/1063969>,Buchs,,,,,,,,,,47.1667,9.4667
<http://vocab.getty.edu/tgn/1064016>,Dielsdorf,,,,,,,,,,47.480247,8.45628
<http://vocab.getty.edu/tgn/1063948>,Blatten,,"""latte""@de",,,,,,,,46.420426,7.819293
<http://vocab.getty.edu/tgn/1063879>,Adliswil,,,,,,,,,,47.311896,8.528684
<http://vocab.getty.edu/tgn/1063967>,Brusio,,,"""rusi""@it",,,,,,,46.259531,10.123846
<http://vocab.getty.edu/tgn/1063923>,Balgach,,"""algac""@de",,,,,,,,47.405558,9.607023
<http://vocab.getty.edu/tgn/1063909>,Arosa,,,,,,,,,,46.777926,9.676206
<http://vocab.getty.edu/tgn/1063942>,Biasca,,,"""iasc""@it",,,,,,,46.356073,8.969924
<http://vocab.getty.edu/tgn/1064027>,Echallens,,,,,,,,,,46.642498,6.637324
<http://vocab.getty.edu/tgn/1063956>,Braunwald,,,,,,,,,,-46.95,9
<http://vocab.getty.edu/tgn/1064022>,Dombresson,,,,,,,,,,47.071971,6.958751
<http://vocab.getty.edu/tgn/1063945>,Binningen,,,,,,,,,,47.533588,7.568512
<http://vocab.getty.edu/tgn/1064021>,Domat/Ems,,"""omat/Em""@de",,,,,,,,46.834827,9.450752
<http://vocab.getty.edu/tgn/1063982>,Châtel-Saint-Denis,,,,,,,,,,46.526672,6.89975
<http://vocab.getty.edu/tgn/1063937>,Bergün,,,,,,,,,,46.62906,9.745179
<http://vocab.getty.edu/tgn/1064028>,Eglisau,,,,,,,,,,47.576886,8.526155
<http://vocab.getty.edu/tgn/1063989>,Cheseaux,,,,,,,,,,46.586689,6.606391
<http://vocab.getty.edu/tgn/1063882>,Affoltern,"""ffolter""@en",,,,,,,,,47.281224,8.45346
<http://vocab.getty.edu/tgn/1063952>,Boncourt,,,,,,,,,,47.495603,7.014229
<http://vocab.getty.edu/tgn/1063930>,Beatenberg,,,,,,,,,,46.693086,7.785226
<http://vocab.getty.edu/tgn/1063878>,Adelboden,,,,,,,,,,46.491829,7.559315
<http://vocab.getty.edu/tgn/1063901>,Apples,,,,,,,,,,46.552405,6.429052
<http://vocab.getty.edu/tgn/1063995>,Cimalmotto,,,"""imalmott""@it",,,,,,,46.283681,8.488581
<http://vocab.getty.edu/tgn/1063880>,Aesch,,,,,,,,,,47.469456,7.595763
<http://vocab.getty.edu/tgn/1064003>,Court,,,,,,,,,,47.23955,7.338886
<http://vocab.getty.edu/tgn/1064009>,Curaglia,,,,,,,,,,46.673195,8.858063
<http://vocab.getty.edu/tgn/1063908>,Arolla,,,,"""roll""@fr",,,,,,46.025325,7.481919
<http://vocab.getty.edu/tgn/1063927>,Bassecourt,,,,,,,,,,47.338293,7.244943
<http://vocab.getty.edu/tgn/1063925>,Bargen,,,,,,,,,,47.7667,8.6167
<http://vocab.getty.edu/tgn/1064012>,Dürrenboden,,,,,,,,,,46.933333,8.833333
<http://vocab.getty.edu/tgn/1063971>,Buochs,,,,,,,,,,46.973976,8.422788
<http://vocab.getty.edu/tgn/1063955>,Bourg-Saint-Pierre,,,,,,,,,,45.949168,7.207757
<http://vocab.getty.edu/tgn/1063894>,Amriswill,,,,,,,,,,47.55,9.3
<http://vocab.getty.edu/tgn/1063975>,Campocologno,,,"""ampocologn""@it",,,,,,,46.232478,10.14268
<http://vocab.getty.edu/tgn/1064000>,Concise,,,,,,,,,,46.850636,6.7207
<http://vocab.getty.edu/tgn/1063944>,Bignasco,,,"""ignasc""@it",,,,,,,46.338445,8.608164
<http://vocab.getty.edu/tgn/1063906>,Ardon,,,,"""rdo""@fr",,,,,,46.209506,7.26012
<http://vocab.getty.edu/tgn/1063887>,Alle,,,,,,,,,,47.426175,7.129112
<http://vocab.getty.edu/tgn/1063950>,Boltigen,,,,,,,,,,46.628904,7.391109
<http://vocab.getty.edu/tgn/1063951>,Bonaduz,,,,,,,,,,46.811032,9.398214
<http://vocab.getty.edu/tgn/1063924>,Balsthal,,,,,,,,,,47.31591,7.693047
<http://vocab.getty.edu/tgn/1063999>,Compatsch,,,,,,,,,,46.959634,10.400155
<http://vocab.getty.edu/tgn/1064010>,Döttingen,,,,,,,,,,47.568488,8.260461
<http://vocab.getty.edu/tgn/1063905>,Ardez,,,,,,,,,,46.77506,10.202284
<http://vocab.getty.edu/tgn/1063992>,Chippis,,,,"""hippi""@fr",,,,,,46.2802,7.539622
<http://vocab.getty.edu/tgn/1063940>,Bex,,,,"""e""@fr",,,,,,46.24965,7.009804
<http://vocab.getty.edu/tgn/1063963>,Broc,,,,,,,,,,46.605135,7.098908
<http://vocab.getty.edu/tgn/1063976>,Capolago,,,"""apolag""@it",,,,,,,45.903681,8.979218
<http://vocab.getty.edu/tgn/1064008>,Cully,,,,,,,,,,46.488301,6.730109
<http://vocab.getty.edu/tgn/1063881>,Aeschi,,,,,,,,,,46.658473,7.69611
<http://vocab.getty.edu/tgn/1064001>,Coppet,,,,"""oppe""@fr",,,,,,46.321275,6.188907
<http://vocab.getty.edu/tgn/1063915>,Ayer,,,,"""ye""@fr",,,,,,46.18088,7.601162
<http://vocab.getty.edu/tgn/1063883>,Agno,,,,,,,,,,45.983333,8.85
<http://vocab.getty.edu/tgn/1063984>,Champéry,,,,"""hampér""@fr",,,,,,46.177693,6.870174
<http://vocab.getty.edu/tgn/1063892>,Alvaneu,,,,,,,,,,46.67892,9.64378
<http://vocab.getty.edu/tgn/1063910>,Arth,,,,,,,,,,47.06337,8.523485
<http://vocab.getty.edu/tgn/1063913>,Ausserferrera,,,,,,,,,,46.557064,9.440275
<http://vocab.getty.edu/tgn/1063936>,Belp,,,,,,,,,,46.890805,7.499042
<http://vocab.getty.edu/tgn/1063985>,Champex,,,,"""hampe""@fr",,,,,,46.031239,7.11545
<http://vocab.getty.edu/tgn/1063991>,Chiasso,,,"""hiass""@it",,,,,,,45.834826,9.026386
<http://vocab.getty.edu/tgn/1063920>,Baar,,,,,,,,,,47.196254,8.529544
<http://vocab.getty.edu/tgn/1063981>,Château-d'Oex,,,,,,,,,,46.47501,7.133601
<http://vocab.getty.edu/tgn/1063997>,Colombier,,,,,,,,,,46.967085,6.856604
<http://vocab.getty.edu/tgn/1063889>,Alpnachstad,,,,,,,,,,46.95437,8.27637
<http://vocab.getty.edu/tgn/1064013>,Dagmersellen,,,,,,,,,,47.213658,7.984664
<http://vocab.getty.edu/tgn/1063968>,Bubendorf,,,,,,,,,,47.44586,7.737586
<http://vocab.getty.edu/tgn/7003278>,Lambach,,,,,,,,,,48.1,13.8667
<http://vocab.getty.edu/tgn/7003632>,Zuid-Holland,"""outh Hollan""@en",,,,,,,,,52,4.666
<http://vocab.getty.edu/tgn/7003440>,Viborg,"""ibor""@en",,,,,,,,,56.4667,9.4167
<http://vocab.getty.edu/tgn/7003456>,Antwerpen,,,,,,,,,,51.166667,4.833333
<http://vocab.getty.edu/tgn/7003627>,Utrecht,,,,,,,,,,52,5.25
<http://vocab.getty.edu/tgn/7003753>,Nidwalden,,"""idwalde""@de",,,,,,,,46.927393,8.410284
<http://vocab.getty.edu/tgn/7003304>,Asolo,,,,,,,,,,45.8,11.9
<http://vocab.getty.edu/tgn/7003712>,Berlin,"""erli""@en","""erli""@de","""erlin""@it",,,,,,,52.516667,13.4
<http://vocab.getty.edu/tgn/7003687>,Sachsen-Anhalt,"""axony-Anhal""@en",,,,,,,,,51.8333,11.8333
<http://vocab.getty.edu/tgn/7003615>,Flevoland,,,,,,,,,,52.533,5.666
<http://vocab.getty.edu/tgn/7003747>,Glarus,,"""laru""@de",,,,,,,,46.975595,9.073176
<http://vocab.getty.edu/tgn/7003685>,Sachsen,"""axon""@en",,,,,,,,,52.8333,10
<http://vocab.getty.edu/tgn/7003739>,Aargau,,"""arga""@de",,,,,,,,47.39557,8.172139
<http://vocab.getty.edu/tgn/7003745>,Fribourg,,,,"""ribour""@fr",,,,,,46.708338,7.103112
<http://vocab.getty.edu/tgn/7003672>,Bremen,,"""reme""@de",,,,,,,,53.05,8.8333
<http://vocab.getty.edu/tgn/7003286>,Eferding,,,,,,,,,,48.3167,14.0333
<http://vocab.getty.edu/tgn/7003676>,Niedersachsen,"""ower Saxon""@en",,,,,,,,,52.6667,9
<http://vocab.getty.edu/tgn/7003502>,Donegal,"""onega""@en",,,,,,,,,54.916667,-8
<http://vocab.getty.edu/tgn/7003283>,Braunau am Inn,,,,,,,,,,48.2667,13.05
<http://vocab.getty.edu/tgn/7003818>,Bragança,,,,,,,,,,41.491041,-6.810138
<http://vocab.getty.edu/tgn/7003748>,Graubünden,,,,,,,,,,46.658705,9.622962
<http://vocab.getty.edu/tgn/7003458>,West-Vlaanderen,"""est Flander""@en",,,,,,,,,51,3
<http://vocab.getty.edu/tgn/7003626>,Overijssel,,,,,,,,,,52.4167,6.5
<http://vocab.getty.edu/tgn/7003692>,Baden-Württemberg,"""aden-Württember""@en","""aden-Württember""@de",,,,,,,,47.95,9.9
<http://vocab.getty.edu/tgn/7003670>,Berlin,,,,,,,,,,52.5,13.4167
<http://vocab.getty.edu/tgn/7003647>,Møre og Romsdal,,,,,,,,,,62.6667,7.8333
<http://vocab.getty.edu/tgn/7003794>,Siracusa,"""yracus""@en",,,,,,,,,37.066667,15.3
<http://vocab.getty.edu/tgn/7003754>,Obwalden,,"""bwalde""@de",,,,,,,,46.85867,8.209841
<http://vocab.getty.edu/tgn/7003282>,Schwanenstadt,,,,,,,,,,48.05,13.7833
<http://vocab.getty.edu/tgn/7003646>,Hordaland,,,,,,,,,,60.25,6
<http://vocab.getty.edu/tgn/7003677>,Nordrhein-Westfalen,"""orth Rhine-Westphali""@en",,,,,,,,,51,7
<http://vocab.getty.edu/tgn/7003550>,Gentofte,"""entoft""@en",,,,,,,,,55.7667,12.5333
<http://vocab.getty.edu/tgn/7003613>,Groningen,,,,,,,,,,53.25,6.75
<http://vocab.getty.edu/tgn/7003740>,Basel-Landschaft,,"""asel-Landschaf""@de",,,,,,,,47.504382,7.70444
<http://vocab.getty.edu/tgn/7003669>,Bayern,"""avari""@en","""ayer""@de",,,,,,,,48.5,11.5
<http://vocab.getty.edu/tgn/7003648>,Oppland,,,,,,,,,,61.1667,9.6667
<http://vocab.getty.edu/tgn/7003487>,Kildare,"""ildar""@en",,,,,,,,,53.183333,-6.8
<http://vocab.getty.edu/tgn/7003793>,Palazzolo Acreide,,,,,,,,,,37.066667,14.9
<http://vocab.getty.edu/tgn/7003367>,Vaduz,,,,,,,,,,47.1333,9.5333
<http://vocab.getty.edu/tgn/7003371>,Eschen,,,,,,,,,,47.2167,9.5333
<http://vocab.getty.edu/tgn/7003814>,Aragona,,,,,,,,,,37.4,13.616667
<http://vocab.getty.edu/tgn/7003755>,Sankt Gallen,,,,,,,,,,47.25,9.25
<http://vocab.getty.edu/tgn/7003421>,Christiansfeld,,,,,,,,,,55.35,9.5
<http://vocab.getty.edu/tgn/7003689>,Thüringen,"""huringi""@en",,,,,,,,,51,11
<http://vocab.getty.edu/tgn/7003331>,Feltre,,,,,,,,,,46.016667,11.9
<http://vocab.getty.edu/tgn/7003494>,Wexford,"""exfor""@en",,,,,,,,,52.466667,-6.566667
<http://vocab.getty.edu/tgn/7003635>,Zeeland,,,,,,,,,,51.4167,3.75
<http://vocab.getty.edu/tgn/7003750>,Luzern,,"""uzer""@de",,,,,,,,47.166667,8.166667
<http://vocab.getty.edu/tgn/7003497>,Cork,"""or""@en",,,,,,,,,51.916667,-8.833333
<http://vocab.getty.edu/tgn/7003468>,Frederiksborg,,,,,,,,,,55.9333,12.3
<http://vocab.getty.edu/tgn/7003624>,Noord-Brabant,"""orth Braban""@en",,,,,,,,,51.666,5
<http://vocab.getty.edu/tgn/7003751>,Neuchâtel,,,,"""euchâte""@fr",,,,,,46.990867,6.797675
<http://vocab.getty.edu/tgn/7003756>,Schaffhausen,,"""chaffhause""@de",,,,,,,,47.727255,8.579228
<http://vocab.getty.edu/tgn/7003743>,Appenzell Ausserrhoden,,"""ppenzell Ausserrhode""@de",,,,,,,,47.36293,9.28283
<http://vocab.getty.edu/tgn/7003460>,Liège,,,,"""ièg""@fr",,,,,,50.5,5.5
<http://vocab.getty.edu/tgn/7003742>,Bern,,"""er""@de",,,,,,,,46.87251,7.595628
<http://vocab.getty.edu/tgn/7003496>,Clare,"""lar""@en",,,,,,,,,52.833333,-9
<http://vocab.getty.edu/tgn/7003545>,Fredensborg,,,,,,,,,,55.9833,12.4
<http://vocab.getty.edu/tgn/7003673>,Hamburg,"""ambur""@en",,,,,,,,,53.5833,10
<http://vocab.getty.edu/tgn/7003792>,Noto,,,,,,,,,,36.883333,15.066667
<http://vocab.getty.edu/tgn/7003325>,Belluno,,,,,,,,,,46.145,12.221389
<http://vocab.getty.edu/tgn/7003553>,Helsingør,,,,"""lsineu""@fr",,,,,,56.05,12.6333
<http://vocab.getty.edu/tgn/7003484>,Louth,"""out""@en",,,,,,,,,53.833333,-6.5
<http://vocab.getty.edu/tgn/7003826>,Porto,,,,,,,,,,41.16098,-8.62072
<http://vocab.getty.edu/tgn/7003650>,Oslo,,,,,,,,,,59.9,10.716
<http://vocab.getty.edu/tgn/7003659>,Akershus,,,,,,,,,,60,11.1667
<http://vocab.getty.edu/tgn/7003652>,Rogaland,,,,,,,,,,59,6.25
<http://vocab.getty.edu/tgn/7003682>,Rheinland-Pfalz,"""hineland Palatinat""@en",,,,,,,,,50,7
<http://vocab.getty.edu/tgn/7003688>,Schleswig-Holstein,,,,,,,,,,53.75,10
<http://vocab.getty.edu/tgn/7003752>,Appenzell Innerrhoden,,"""ppenzell Innerrhode""@de",,,,,,,,47.31262,9.40562
<http://vocab.getty.edu/tgn/7003292>,Markt Sankt Florian,"""arkt Sankt Floria""@en",,,,,,,,,48.2,14.372
<http://vocab.getty.edu/tgn/7003653>,Sogn og Fjordane,,,,,,,,,,61.5,6.8333
<http://vocab.getty.edu/tgn/7003321>,Wien,"""ienn""@en","""ie""@de",,"""ienn""@fr","""éc""@hu",,,,,48.2167,16.3667
<http://vocab.getty.edu/tgn/7003556>,Hillerød,,,,,,,,,,55.9333,12.3167
<http://vocab.getty.edu/tgn/7003619>,Gelderland,,,,,,,,,,52,5.8333
<http://vocab.getty.edu/tgn/7003370>,Mauren,,,,,,,,,,47.2,9.5667
<http://vocab.getty.edu/tgn/7003474>,København,"""openhage""@en","""openhage""@de",,"""openhagu""@fr",,,,,,55.7167,12.5667
<http://vocab.getty.edu/tgn/7003769>,Gotland,,,,,,,,,,57.5,18.5
<http://vocab.getty.edu/tgn/7003746>,Genève,,,,"""enèv""@fr",,,,,,46.196732,6.110443
<http://vocab.getty.edu/tgn/7003749>,Jura,,,,"""ur""@fr",,,,,,47.372662,7.168017
<http://vocab.getty.edu/tgn/7003622>,Limburg,,,,,,,,,,51.25,6
<http://vocab.getty.edu/tgn/7003684>,Saarland,,,,,,,,,,49.3333,7
<http://vocab.getty.edu/tgn/7003772>,Halland,,,,,,,,,,56.75,13
<http://vocab.getty.edu/tgn/7003821>,Évora,,,,,,,,,,38.583333,-7.833333
<http://vocab.getty.edu/tgn/7003808>,Agrigento,,,,,,,,,,37.316667,13.566667
<http://vocab.getty.edu/tgn/7003274>,Gmunden,,,,,,,,,,47.9333,13.8
<http://vocab.getty.edu/tgn/7003297>,Treviso,,,,,,,,,,45.666667,12.245
<http://vocab.getty.edu/tgn/7003466>,Namur,,,,"""amu""@fr",,,,,,50.333333,4.833333
<http://vocab.getty.edu/tgn/7003514>,Luxembourg,"""uxembour""@en","""uxembur""@de",,"""uxembour""@fr",,,"""юксембур""@ru","""uxemburg""@es",,49.75,6.1667
<http://vocab.getty.edu/tgn/7003641>,Buskerud,,,,,,,,,,60.4167,9.2
<http://vocab.getty.edu/tgn/7003465>,Luxembourg,,,,"""uxembour""@fr",,,,,,50,5.5
<http://vocab.getty.edu/tgn/7003536>,Ålborg,"""lbor""@en",,,,,,,,,57.05,9.9333
<http://vocab.getty.edu/tgn/7003678>,Hessen,"""ess""@en",,,,,,,,,50.5,9.25
<http://vocab.getty.edu/tgn/7003777>,Stockholm,,,,,,,,,,59.5,18
<http://vocab.getty.edu/tgn/7003457>,Oost-Vlaanderen,"""ast Flander""@en",,,,,,,,,51,3.75
<http://vocab.getty.edu/tgn/7003515>,Liechtenstein,"""iechtenstei""@en","""iechtenstei""@de",,"""iechtenstei""@fr",,,,"""iechtenstei""@es",,47.1667,9.5333
<http://vocab.getty.edu/tgn/7003443>,Silkeborg,,,,,,,,,,56.1667,9.5667
<http://vocab.getty.edu/tgn/7003588>,Rungsted,,,,,,,,,,55.9,12.5667
<http://vocab.getty.edu/tgn/7003372>,Schellenberg,,,,,,,,,,47.25,9.6
<http://vocab.getty.edu/tgn/1064068>,Gais,,"""ai""@de",,,,,,,,47.360908,9.451185
<http://vocab.getty.edu/tgn/1064146>,Kloten,,,,,,,,,,47.449817,8.594777
<http://vocab.getty.edu/tgn/1064158>,La Roche,,,,,,,,,,46.697232,7.139304
<http://vocab.getty.edu/tgn/1064153>,Lützelflüh,,,,,,,,,,47.007569,7.691653
<http://vocab.getty.edu/tgn/1064157>,La Punt,,,,,,,,,,46.5833,9.9167
<http://vocab.getty.edu/tgn/1064154>,La Brévine,,,,,,,,,,46.98039,6.606904
<http://vocab.getty.edu/tgn/1064078>,Giswil,,,,,,,,,,46.833327,8.180646
<http://vocab.getty.edu/tgn/1064167>,Langnau im Emmental,,,,,,,,,,46.93936,7.78738
<http://vocab.getty.edu/tgn/1064107>,Hindelbank,,,,,,,,,,47.041963,7.541673
<http://vocab.getty.edu/tgn/1064172>,Laufenburg,,,,,,,,,,47.559248,8.060446
<http://vocab.getty.edu/tgn/1064164>,Landquart,,,,,,,,,,46.963157,9.557922
<http://vocab.getty.edu/tgn/1064100>,Hallau,,,,,,,,,,47.699817,8.457967
<http://vocab.getty.edu/tgn/1064070>,Gandria,,,"""andri""@it",,,,,,,46.008326,9.008324
<http://vocab.getty.edu/tgn/1064029>,Egnach,,"""gnac""@de",,,,,,,,47.54268,9.38048
<http://vocab.getty.edu/tgn/1064120>,Innerthal,,"""nnertha""@de",,,,,,,,47.10567,8.92011
<http://vocab.getty.edu/tgn/1064038>,Eriswil,,,,,,,,,,47.078158,7.851489
<http://vocab.getty.edu/tgn/1064143>,Kleinlützel,,,,,,,,,,47.425368,7.422936
<http://vocab.getty.edu/tgn/1064110>,Hochdorf,,,,,,,,,,47.168408,8.291788
<http://vocab.getty.edu/tgn/1064145>,Klosters Platz,,,,,,,,,,46.868814,9.881514
<http://vocab.getty.edu/tgn/1064085>,Gordola,,,"""ordol""@it",,,,,,,46.18031,8.864996
<http://vocab.getty.edu/tgn/1064093>,Grolley,,,,,,,,,,46.834009,7.073733
<http://vocab.getty.edu/tgn/1064076>,Gerzensee,,,,,,,,,,46.839213,7.545461
<http://vocab.getty.edu/tgn/1064090>,Grenchen,,,,,,,,,,47.19354,7.396577
<http://vocab.getty.edu/tgn/1064098>,Guttannen,,,,,,,,,,46.655108,8.289509
<http://vocab.getty.edu/tgn/1064150>,Kriens,,,,,,,,,,47.035366,8.276307
<http://vocab.getty.edu/tgn/1064051>,Filzbach,,"""ilzbac""@de",,,,,,,,47.12208,9.12607
<http://vocab.getty.edu/tgn/1064133>,Küssnacht,,,,,,,,,,47.085571,8.442057
<http://vocab.getty.edu/tgn/1064115>,Huttwil,,,,,,,,,,47.11502,7.862087
<http://vocab.getty.edu/tgn/1064105>,Herznach,,,,,,,,,,47.4667,8.05
<http://vocab.getty.edu/tgn/1064075>,Gersau,,,,,,,,,,46.994189,8.524996
<http://vocab.getty.edu/tgn/1064081>,Glattfelden,,,,,,,,,,47.556653,8.505548
<http://vocab.getty.edu/tgn/1064170>,Latterbach,,,,,,,,,,46.6667,7.5833
<http://vocab.getty.edu/tgn/1064102>,Heiden,,"""eide""@de",,,,,,,,47.442549,9.532934
<http://vocab.getty.edu/tgn/1064180>,Le Locle,,,,,,,,,,47.059533,6.752278
<http://vocab.getty.edu/tgn/1064097>,Gsteig,,,,,,,,,,46.385851,7.267507
<http://vocab.getty.edu/tgn/1064065>,Gänsbrunnen,,,,,,,,,,47.262847,7.467509
<http://vocab.getty.edu/tgn/1064138>,Kerzers,,,,,,,,,,46.975232,7.198898
<http://vocab.getty.edu/tgn/1064109>,Hinwil,,"""inwi""@de",,,,,,,,47.29702,8.84348
<http://vocab.getty.edu/tgn/1064048>,Feldis,,,,,,,,,,46.794216,9.432029
<http://vocab.getty.edu/tgn/1064056>,Flims,,,,,,,,,,46.837052,9.284577
<http://vocab.getty.edu/tgn/1064175>,Lauterbrunnen,,,,,,,,,,46.595676,7.907654
<http://vocab.getty.edu/tgn/1064121>,Innertkirchen,,,,,,,,,,46.707219,8.217508
<http://vocab.getty.edu/tgn/1064144>,Klingnau,,,,,,,,,,47.57998,8.250484
<http://vocab.getty.edu/tgn/1064072>,Gelterkinden,,,,,,,,,,47.464968,7.85174
<http://vocab.getty.edu/tgn/1064128>,Jenaz,,,,,,,,,,46.92892,9.712754
<http://vocab.getty.edu/tgn/1064047>,Faido,,,"""aid""@it",,,,,,,46.479417,8.797659
<http://vocab.getty.edu/tgn/1064131>,Küblis,,,,,,,,,,46.913683,9.771985
<http://vocab.getty.edu/tgn/1064089>,Greifensee,,,,,,,,,,47.367869,8.680017
<http://vocab.getty.edu/tgn/1064091>,Grimmialp,,,,,,,,,,46.566667,7.483333
<http://vocab.getty.edu/tgn/1064054>,Flawil,,"""lawi""@de",,,,,,,,47.413011,9.183238
<http://vocab.getty.edu/tgn/1064116>,Il Fuorn,,,,,,,,,,46.664516,10.210168
<http://vocab.getty.edu/tgn/1064130>,Köniz,,,,,,,,,,46.923391,7.408688
<http://vocab.getty.edu/tgn/1064033>,Emmenbrücke,,,,,,,,,,47.072828,8.288961
<http://vocab.getty.edu/tgn/1064067>,Gadmen,,,,,,,,,,46.737326,8.352235
<http://vocab.getty.edu/tgn/1064032>,Embrach,,,,,,,,,,47.507063,8.595681
<http://vocab.getty.edu/tgn/1064094>,Gross Höchstetten,,,,,,,,,,46.904904,7.637278
<http://vocab.getty.edu/tgn/1064057>,Flums,,"""lum""@de",,,,,,,,47.095202,9.343204
<http://vocab.getty.edu/tgn/1064079>,Gland,,,,"""lan""@fr",,,,,,46.419722,6.271947
<http://vocab.getty.edu/tgn/1064159>,La Sagne,,,,,,,,,,47.044783,6.807559
<http://vocab.getty.edu/tgn/1064137>,Kandersteg,,,,,,,,,,46.496068,7.674825
<http://vocab.getty.edu/tgn/1064040>,Ermatingen,,"""rmatinge""@de",,,,,,,,47.67057,9.08573
<http://vocab.getty.edu/tgn/1064043>,Estavayer-le-Lac,,,,,,,,,,46.849125,6.845805
<http://vocab.getty.edu/tgn/1064099>,Gwatt,,,,,,,,,,46.720439,7.622265
<http://vocab.getty.edu/tgn/1064136>,Kaltbrunn,,"""altbrun""@de",,,,,,,,47.213669,9.0259
<http://vocab.getty.edu/tgn/1064086>,Gossau,,"""ossa""@de",,,,,,,,47.41551,9.25482
<http://vocab.getty.edu/tgn/1064104>,Herisau,,"""erisa""@de",,,,,,,,47.38271,9.27186
<http://vocab.getty.edu/tgn/1064092>,Grindelwald,,,,,,,,,,46.625435,8.033231
<http://vocab.getty.edu/tgn/1064114>,Hundwil,,"""undwi""@de",,,,,,,,47.364853,9.318664
<http://vocab.getty.edu/tgn/1064134>,Küttigen,,,,,,,,,,47.415658,8.047673
<http://vocab.getty.edu/tgn/1064108>,Hinterrhein,,,,,,,,,,46.531063,9.198837
<http://vocab.getty.edu/tgn/1064055>,Fleurier,,,,,,,,,,46.903265,6.582135
<http://vocab.getty.edu/tgn/1064168>,Langwies,,,,,,,,,,46.819247,9.709382
<http://vocab.getty.edu/tgn/1064039>,Erlach,,,,,,,,,,47.042973,7.099604
<http://vocab.getty.edu/tgn/1064074>,Gerlafingen,,,,,,,,,,47.169782,7.575051
<http://vocab.getty.edu/tgn/1064171>,Laufen,,,,,,,,,,47.420878,7.507521
<http://vocab.getty.edu/tgn/1064140>,Kiental,,,,,,,,,,46.587959,7.723944
<http://vocab.getty.edu/tgn/1064059>,Freienbach,,"""reienbac""@de",,,,,,,,47.201877,8.757533
<http://vocab.getty.edu/tgn/1064126>,Isone,,,"""son""@it",,,,,,,46.128624,8.985355
<http://vocab.getty.edu/tgn/1064062>,Frutigen,,,,,,,,,,46.58782,7.64751
<http://vocab.getty.edu/tgn/1064069>,Gams,,"""am""@de",,,,,,,,47.207864,9.443274
<http://vocab.getty.edu/tgn/1064125>,Iseltwald,,,,,,,,,,46.710758,7.964152
<http://vocab.getty.edu/tgn/1064118>,Indemini,,,"""ndemin""@it",,,,,,,46.094434,8.825714
<http://vocab.getty.edu/tgn/1064063>,Fuldera,,,,,,,,,,46.60875,10.370637
<http://vocab.getty.edu/tgn/1064071>,Gelfingen,,,,,,,,,,47.166667,8.25
<http://vocab.getty.edu/tgn/1064177>,Le Brassus,,,,,,,,,,46.583768,6.211859
<http://vocab.getty.edu/tgn/1064165>,Langenbruck,,,,,,,,,,47.348549,7.768837
<http://vocab.getty.edu/tgn/1064152>,Läufelfingen,,,,,,,,,,47.397028,7.854867
<http://vocab.getty.edu/tgn/1064061>,Frick,,,,,,,,,,47.51169,8.024713
<http://vocab.getty.edu/tgn/1064124>,Intragna,,,"""ntragn""@it",,,,,,,46.177515,8.700163
<http://vocab.getty.edu/tgn/1064148>,Konolfingen Dorf,,,,,,,,,,46.889503,7.630365
<http://vocab.getty.edu/tgn/1064036>,Ennenda,,,,,,,,,,47.034647,9.077248
<http://vocab.getty.edu/tgn/1064083>,Goldau,,,,,,,,,,47.048909,8.549463
<http://vocab.getty.edu/tgn/1064112>,Horw,,,,,,,,,,47.016917,8.309556
<http://vocab.getty.edu/tgn/1064035>,Engwilen,,,,,,,,,,47.6167,9.0833
<http://vocab.getty.edu/tgn/1064139>,Kesswil,,"""esswi""@de",,,,,,,,47.5935,9.31723
<http://vocab.getty.edu/tgn/1064064>,Fusio,,,"""usi""@it",,,,,,,46.444457,8.663039
<http://vocab.getty.edu/tgn/1064111>,Horgen,,,,,,,,,,47.255924,8.598672
<http://vocab.getty.edu/tgn/1064031>,Elm,,,,,,,,,,46.919017,9.172416
<http://vocab.getty.edu/tgn/1064119>,Innerferrera,,,"""nnerferrer""@it",,,,,,,46.521188,9.443116
<http://vocab.getty.edu/tgn/1064103>,Henniez,,,,,,,,,,46.75,6.8833
<http://vocab.getty.edu/tgn/7003008>,Vicenza,,,,,,,,,,45.666667,11.45
<http://vocab.getty.edu/tgn/7003110>,Fohnsdorf,,,,,,,,,,47.2167,14.0667
<http://vocab.getty.edu/tgn/7003128>,Ferrara,,,,,,,,,,44.8,11.833333
<http://vocab.getty.edu/tgn/7002994>,Padova,,,,,,,,,,45.35,11.816667
<http://vocab.getty.edu/tgn/7003261>,Bassano del Grappa,,,,,,,,,,45.766667,11.733333
<http://vocab.getty.edu/tgn/7003251>,Telfs,,,,,,,,,,47.3167,11.0833
<http://vocab.getty.edu/tgn/7003223>,Département de la Vendée,"""épartement de la Vendé""@en",,,,,,,,,46.666667,-1.333333
<http://vocab.getty.edu/tgn/7003137>,Rieti,,,,,,,,,,41.4667,12.8667
<http://vocab.getty.edu/tgn/7003006>,Venezia,,,,,,,,,,45.583333,12.566667
<http://vocab.getty.edu/tgn/7003199>,Linz,,,,,,,,,,48.3167,14.3
<http://vocab.getty.edu/tgn/7003143>,La Spezia,,,,,,,,,,44.25,9.7
<http://vocab.getty.edu/tgn/7003193>,Melk,,,,,,,,,,48.2333,15.35
<http://vocab.getty.edu/tgn/7003163>,Firenze,,,,,,,,,,43.833333,11.333333
<http://vocab.getty.edu/tgn/7003187>,Klosterneuburg,,,,,,,,,,48.3167,16.3333
<http://vocab.getty.edu/tgn/7003135>,Frosinone,,,,,,,,,,41.616667,13.45
<http://vocab.getty.edu/tgn/7003014>,Salerno,,,,,,,,,,40.45,15.266667
<http://vocab.getty.edu/tgn/7003142>,Genova,,,,,,,,,,44.5,9.066667
<http://vocab.getty.edu/tgn/7003152>,Sondrio,,,,,,,,,,46.166667,10.05
<http://vocab.getty.edu/tgn/7003112>,Murau,,,,,,,,,,47.1333,14.1667
<http://vocab.getty.edu/tgn/7003144>,Savona,,,,,,,,,,44.3,8.266667
<http://vocab.getty.edu/tgn/7002997>,Veneto,,,"""enet""@it",,,,,,,45.5,11.75
<http://vocab.getty.edu/tgn/7003162>,Arezzo,,,,,,,,,,43.533333,11.833333
<http://vocab.getty.edu/tgn/7003158>,Trento,,,,,,,,,,46.133333,11.116667
<http://vocab.getty.edu/tgn/7003244>,Kitzbühel,,,,,,,,,,47.45,12.3833
<http://vocab.getty.edu/tgn/7003097>,Graz,,,,,,,,,,47.0833,15.3667
<http://vocab.getty.edu/tgn/7003007>,Verona,,,,,,,,,,45.416667,11.033333
<http://vocab.getty.edu/tgn/7003240>,Marche,"""arche""@en",,"""arch""@it",,,,,,,43.5,13.25
<http://vocab.getty.edu/tgn/7003168>,Siena,,,,,,,,,,43.216667,11.4
<http://vocab.getty.edu/tgn/7003138>,Roma,,,,,,,,,,41.966667,12.666667
<http://vocab.getty.edu/tgn/7003150>,Milano,,,,,,,,,,45.5,9.5
<http://vocab.getty.edu/tgn/7003117>,Dornbirn,,,,,,,,,,47.4167,9.7667
<http://vocab.getty.edu/tgn/7003134>,Reggio nell'Emilia,,,,,,,,,,44.616667,10.616667
<http://vocab.getty.edu/tgn/7003247>,Schwaz,,,,,,,,,,47.35,11.7333
<http://vocab.getty.edu/tgn/7002995>,Rovigo,,,,,,,,,,45.033333,11.833333
<http://vocab.getty.edu/tgn/7002993>,Friuli-Venezia Giulia,,,"""riuli-Venezia Giuli""@it",,,,,,,46,13
<http://vocab.getty.edu/tgn/7003028>,Steiermark,,,,,,,,,,47.25,15.1667
<http://vocab.getty.edu/tgn/7003030>,Wien,"""ienna stat""@en",,,,,,,,,48.25,16.416
<http://vocab.getty.edu/tgn/7003131>,Parma,,,,,,,,,,44.7,10.083333
<http://vocab.getty.edu/tgn/7003254>,Landeck,,,,,,,,,,47.15,10.5833
<http://vocab.getty.edu/tgn/7003029>,Tirol,"""yro""@en","""iro""@de","""irol""@it",,,,,,,47.25,11.3333
<http://vocab.getty.edu/tgn/7003023>,Burgenland,,,,,,,,,,47.5,16.416
<http://vocab.getty.edu/tgn/7003025>,Niederösterreich,,,,,,,,,,48.3333,15.75
<http://vocab.getty.edu/tgn/7003026>,Oberösterreich,,,,,,,,,,48.25,14
<http://vocab.getty.edu/tgn/7002991>,Belluno,,,,,,,,,,46.25,12.133333
<http://vocab.getty.edu/tgn/7003191>,Herzogenburg,,,,,,,,,,48.3,15.7167
<http://vocab.getty.edu/tgn/7003127>,Bologna,,,,,,,,,,44.466667,11.433333
<http://vocab.getty.edu/tgn/7003084>,Klagenfurt,,"""lagenfur""@de",,,,,,,,46.6333,14.3333
<http://vocab.getty.edu/tgn/7003124>,Trentino-Alto Adige,,,"""rentino-Alto Adig""@it",,,,,,,46.5,10.3333
<http://vocab.getty.edu/tgn/7003133>,Ravenna,,,,,,,,,,44.416667,11.983333
<http://vocab.getty.edu/tgn/7003063>,Wolfsberg,,,,,,,,,,46.8333,14.8333
<http://vocab.getty.edu/tgn/7003154>,Torino,,,,,,,,,,45.133333,7.366667
<http://vocab.getty.edu/tgn/7003120>,Piemonte,"""iedmon""@en",,"""iemont""@it",,,,,,,45,8
<http://vocab.getty.edu/tgn/7003080>,Lazio,,,"""azi""@it",,,,,,,42,14.5
<http://vocab.getty.edu/tgn/7003169>,Zwettl,,,,,,,,,,48.6167,15.1667
<http://vocab.getty.edu/tgn/7003170>,Perugia,,,,,,,,,,43.05,12.55
<http://vocab.getty.edu/tgn/7003249>,Innsbruck,,,,,,,,,,47.2667,11.4
<http://vocab.getty.edu/tgn/7003262>,Verona,,,,,,,,,,45.45,11
<http://vocab.getty.edu/tgn/7003256>,Salzburg,,,,,,,,,,47.8,13.05
<http://vocab.getty.edu/tgn/7003013>,Napoli,,,,,,,,,,40.883333,14.416667
<http://vocab.getty.edu/tgn/7003002>,Avellino,,,,,,,,,,40.983333,15.15
<http://vocab.getty.edu/tgn/7003024>,Kärnten,,,,,,,,,,46.75,13.8333
<http://vocab.getty.edu/tgn/7003125>,Umbria,"""mbri""@en",,"""mbri""@it",,,,,,,43,12.5
<http://vocab.getty.edu/tgn/7003015>,Salerno,,,,,,,,,,40.683333,14.783333
<http://vocab.getty.edu/tgn/7003027>,Salzburg,,,,,,,,,,47.4167,13.25
<http://vocab.getty.edu/tgn/7003121>,Sardegna,"""ardini""@en",,"""ardegn""@it",,,,,,,40,9
<http://vocab.getty.edu/tgn/7003126>,Valle d'Aosta,,,"""alle d'Aost""@it",,,,,,,45.7667,7.4167
<http://vocab.getty.edu/tgn/7003190>,Sankt Pölten,,"""ankt Pölte""@de",,,,,,,,48.2,15.6167
<http://vocab.getty.edu/tgn/7002883>,Île-de-France,,,,"""le-de-Franc""@fr",,,,,,48.5,2.5
<http://vocab.getty.edu/tgn/7003116>,Bregenz,,,,,,,,,,47.5167,9.7667
<http://vocab.getty.edu/tgn/7003165>,Lucca,,,,,,,,,,44.033333,10.45
<http://vocab.getty.edu/tgn/7003236>,Liguria,"""iguri""@en",,"""iguri""@it",,,,,,,44.5,8.8333
<http://vocab.getty.edu/tgn/7003233>,Millstatt,,,,,,,,,,46.804,13.576
<http://vocab.getty.edu/tgn/7002935>,Département de l'Essonne,"""épartement de l'Essonn""@en",,,,,,,,,48.5,2.25
<http://vocab.getty.edu/tgn/7003248>,Bari,,,,,,,,,,40.933333,16.666667
<http://vocab.getty.edu/tgn/7003164>,Livorno,,,,,,,,,,43.233333,10.583333
<http://vocab.getty.edu/tgn/7003195>,Gaming,,,,,,,,,,47.9333,15.1
<http://vocab.getty.edu/tgn/7003166>,Pisa,,,,,,,,,,43.416667,10.716667
<http://vocab.getty.edu/tgn/7003139>,Viterbo,,,,,,,,,,42.416667,12.083333
<http://vocab.getty.edu/tgn/7002996>,Treviso,,,,,,,,,,45.833333,12.216667
<http://vocab.getty.edu/tgn/7003204>,Vicenza,,,,,,,,,,45.55,11.55
<http://vocab.getty.edu/tgn/7003173>,Krems an der Donau,,,,,,,,,,48.4167,15.6
<http://vocab.getty.edu/tgn/7003141>,Imperia,,,,,,,,,,43.966667,7.783333
<http://vocab.getty.edu/tgn/7003258>,Hallein,,,,,,,,,,47.6833,13.1
<http://vocab.getty.edu/tgn/7003136>,Latina,,,,,,,,,,41.45,13.1
<http://vocab.getty.edu/tgn/7003005>,Campania,,,"""ampani""@it",,,,,,,40.9167,14.8333
<http://vocab.getty.edu/tgn/7003271>,Rovigo,,,,,,,,,,45.066667,11.783333
<http://vocab.getty.edu/tgn/7003237>,Lombardia,"""ombard""@en",,"""ombardi""@it",,,,,,,45.6667,9.5
<http://vocab.getty.edu/tgn/7003122>,Sicilia,"""icil""@en",,"""icili""@it",,,,,,,37.5,14
<http://vocab.getty.edu/tgn/7003119>,Feldkirch,,,,,,,,,,47.25,9.6333
<http://vocab.getty.edu/tgn/7003129>,Forlì-Cesena,,,"""orlì-Cesen""@it",,,,,,,44.083333,12.033333
<http://vocab.getty.edu/tgn/7003085>,Padova,"""adu""@en",,,,,,,,,45.416667,11.883333
<http://vocab.getty.edu/tgn/7003183>,Baden,,,,,,,,,,48.0167,16.2333
<http://vocab.getty.edu/tgn/7003227>,Département des Yvelines,"""épartement des Yveline""@en",,,,,,,,,48.783333,1.866667
<http://vocab.getty.edu/tgn/7003167>,Pistoia,,,,,,,,,,43.966667,10.833333
<http://vocab.getty.edu/tgn/7003151>,Pavia,,,,,,,,,,45.116667,9.133333
<http://vocab.getty.edu/tgn/7003157>,Messina,,,,,,,,,,38.05,14.866667
<http://vocab.getty.edu/tgn/7003250>,Imst,,,,,,,,,,47.2333,10.75
<http://vocab.getty.edu/tgn/7003171>,Terni,,,,,,,,,,42.683333,12.316667
<http://vocab.getty.edu/tgn/7003188>,Tulln,,,,,,,,,,48.3333,16.05
<http://vocab.getty.edu/tgn/7003132>,Piacenza,,,,,,,,,,44.883333,9.583333
<http://vocab.getty.edu/tgn/1064349>,Saanenmöser,,,,,,,,,,46.516242,7.30232
<http://vocab.getty.edu/tgn/1064257>,Nesslau,,"""essla""@de",,,,,,,,47.222798,9.201242
<http://vocab.getty.edu/tgn/1064262>,Neuhausen,,,,,,,,,,47.7,8.6167
<http://vocab.getty.edu/tgn/1064261>,Neuenegg,,,,,,,,,,46.9,7.3
<http://vocab.getty.edu/tgn/1064279>,Olivone,,,"""livon""@it",,,,,,,46.528884,8.93715
<http://vocab.getty.edu/tgn/1064383>,Schöftland,,,,,,,,,,47.305716,8.051377
<http://vocab.getty.edu/tgn/1064231>,Melide,,,"""elid""@it",,,,,,,45.953429,8.946742
<http://vocab.getty.edu/tgn/1064288>,Ostermundigen,,,,,,,,,,46.956112,7.487187
<http://vocab.getty.edu/tgn/1064325>,Rheinfelden,,,,,,,,,,47.553587,7.793839
<http://vocab.getty.edu/tgn/1064292>,Peseux,,,,,,,,,,46.982998,6.881593
<http://vocab.getty.edu/tgn/1064321>,Reigoldswil,,,,,,,,,,47.398241,7.687177
<http://vocab.getty.edu/tgn/1064306>,Pratteln,,,,,,,,,,47.52118,7.688415
<http://vocab.getty.edu/tgn/1064214>,Münsingen,,,,,,,,,,46.87309,7.568647
<http://vocab.getty.edu/tgn/1064392>,Schwanden,,,,,,,,,,46.995414,9.070095
<http://vocab.getty.edu/tgn/1064211>,Möhlin,,,,,,,,,,47.556412,7.846873
<http://vocab.getty.edu/tgn/1064296>,Pfyn,,,,,,,,,,47.5833,8.8
<http://vocab.getty.edu/tgn/1064391>,Schlieren,,,,,,,,,,47.39646,8.448587
<http://vocab.getty.edu/tgn/1064326>,Riaz,,,,,,,,,,46.642242,7.061831
<http://vocab.getty.edu/tgn/1064355>,Saint-Aubin,,,,,,,,,,46.889922,6.980858
<http://vocab.getty.edu/tgn/1064184>,Lengnau,,,,,,,,,,47.183824,7.373714
<http://vocab.getty.edu/tgn/1064394>,Schwarzsee,,,,,,,,,,46.6667,7.3333
<http://vocab.getty.edu/tgn/1064342>,Rothrist,,,,,,,,,,47.305162,7.890945
<http://vocab.getty.edu/tgn/1064258>,Netstal,,"""etsta""@de",,,,,,,,47.063371,9.057342
<http://vocab.getty.edu/tgn/1064339>,Root,,,,,,,,,,47.114581,8.390207
<http://vocab.getty.edu/tgn/1064297>,Pieterlen,,,,,,,,,,47.17437,7.339657
<http://vocab.getty.edu/tgn/1064384>,Schönenwerd,,,,,,,,,,47.3691,8.001674
<http://vocab.getty.edu/tgn/1064230>,Melchtal,,,,,,,,,,46.834355,8.289857
<http://vocab.getty.edu/tgn/1064210>,Märstetten,,"""ärstette""@de",,,,,,,,47.59338,9.06676
<http://vocab.getty.edu/tgn/1064335>,Romanshorn,,"""omanshor""@de",,,,,,,,47.56523,9.36572
<http://vocab.getty.edu/tgn/1064328>,Richterswil,,"""ichterswi""@de",,,,,,,,47.20548,8.70712
<http://vocab.getty.edu/tgn/1064389>,Schinznach Dorf,,,,,,,,,,47.4465,8.140887
<http://vocab.getty.edu/tgn/1064185>,Lenk,,,,,,,,,,46.458063,7.441356
<http://vocab.getty.edu/tgn/1064235>,Merishausen,,,,,,,,,,47.760278,8.608707
<http://vocab.getty.edu/tgn/1064200>,Littau,,,,,,,,,,47.050004,8.262739
<http://vocab.getty.edu/tgn/1064191>,Les Mosses,,,,,,,,,,46.4,7.116667
<http://vocab.getty.edu/tgn/1064363>,Saint-Ursanne,,,,,,,,,,47.36474,7.154356
<http://vocab.getty.edu/tgn/1064182>,Le Pont,,,,,,,,,,46.667969,6.327838
<http://vocab.getty.edu/tgn/1064387>,Schangnau,,,,,,,,,,46.82784,7.859875
<http://vocab.getty.edu/tgn/1064274>,Oberriet,,"""berrie""@de",,,,,,,,47.320883,9.568079
<http://vocab.getty.edu/tgn/1064354>,Saignelégier,,,,,,,,,,47.255435,6.994608
<http://vocab.getty.edu/tgn/1064312>,Rümlang,,,,,,,,,,47.451787,8.526777
<http://vocab.getty.edu/tgn/1064228>,Meilen,,,,,,,,,,47.270429,8.643675
<http://vocab.getty.edu/tgn/1064379>,Sattel,,,,,,,,,,47.082461,8.635646
<http://vocab.getty.edu/tgn/1064212>,Münchenbuchsee,,,,,,,,,,47.020946,7.448956
<http://vocab.getty.edu/tgn/1064390>,Schleitheim,,,,,,,,,,47.750261,8.481475
<http://vocab.getty.edu/tgn/1064270>,Oberdiessbach,,,,,,,,,,46.85,7.6167
<http://vocab.getty.edu/tgn/1064263>,Nidau,,,,,,,,,,47.129167,7.238464
<http://vocab.getty.edu/tgn/1064265>,Niederurnen,,"""iederurne""@de",,,,,,,,47.127074,9.057759
<http://vocab.getty.edu/tgn/1064277>,Oensingen,,,,,,,,,,47.286388,7.723051
<http://vocab.getty.edu/tgn/1064393>,Schwarzenburg,,,,,,,,,,46.818108,7.342084
<http://vocab.getty.edu/tgn/1064267>,Niederweningen,,,,,,,,,,47.502872,8.374084
<http://vocab.getty.edu/tgn/1064359>,Saint-Imier,,,,,,,,,,47.152195,6.995124
<http://vocab.getty.edu/tgn/1064205>,Lungern,,,,,,,,,,46.784245,8.160481
<http://vocab.getty.edu/tgn/1064282>,Onex,,,,"""ne""@fr",,,,,,46.183961,6.102371
<http://vocab.getty.edu/tgn/1064273>,Oberried,,,,,,,,,,46.736271,7.959324
<http://vocab.getty.edu/tgn/1064227>,Mauensee,,,,,,,,,,47.168468,8.066174
<http://vocab.getty.edu/tgn/1064208>,Lyss,,,,,,,,,,47.077573,7.31162
<http://vocab.getty.edu/tgn/1064250>,Murgenthal,,,,,,,,,,47.270172,7.839468
<http://vocab.getty.edu/tgn/1064377>,Sargans,,,,,,,,,,47.05,9.4333
<http://vocab.getty.edu/tgn/1064283>,Opfikon,,,,,,,,,,47.432553,8.580231
<http://vocab.getty.edu/tgn/1064234>,Menziken,,,,,,,,,,47.242487,8.19047
<http://vocab.getty.edu/tgn/1064216>,Münsterlingen,,"""ünsterlinge""@de",,,,,,,,47.63197,9.23271
<http://vocab.getty.edu/tgn/1064193>,Les Verrières,,,,,,,,,,46.90698,6.469888
<http://vocab.getty.edu/tgn/1064298>,Piotta,,,"""iott""@it",,,,,,,46.514553,8.673848
<http://vocab.getty.edu/tgn/1064345>,Rue,,,,,,,,,,46.619332,6.822489
<http://vocab.getty.edu/tgn/1064264>,Niederbipp,,,,,,,,,,47.266129,7.694612
<http://vocab.getty.edu/tgn/1064313>,Rüti,,"""üt""@de",,,,,,,,47.26023,8.85499
<http://vocab.getty.edu/tgn/1064192>,Les Ponts-de-Martel,,,,,,,,,,46.9,6.6833
<http://vocab.getty.edu/tgn/1064238>,Mollis,,"""olli""@de",,,,,,,,47.088779,9.072424
<http://vocab.getty.edu/tgn/1064197>,Lichtensteig,,"""ichtenstei""@de",,,,,,,,47.337551,9.084078
<http://vocab.getty.edu/tgn/1064373>,Sankt Margrethen,,"""ankt Margrethe""@de",,,,,,,,47.45748,9.6255
<http://vocab.getty.edu/tgn/1064327>,Richisau,,,,,,,,,,47.021355,8.903918
<http://vocab.getty.edu/tgn/1064229>,Meiringen,,,,,,,,,,46.726776,8.183961
<http://vocab.getty.edu/tgn/1064301>,Ponte Tresa,,,"""onte Tres""@it",,,,,,,45.970478,8.85833
<http://vocab.getty.edu/tgn/1064324>,Rheineck,,"""heinec""@de",,,,,,,,47.474492,9.583843
<http://vocab.getty.edu/tgn/1064314>,Rafz,,,,,,,,,,47.61259,8.539162
<http://vocab.getty.edu/tgn/1064299>,Plaffeien,,,,,,,,,,46.741977,7.286664
<http://vocab.getty.edu/tgn/1064181>,Le Noirmont,,,,,,,,,,47.225674,6.957303
<http://vocab.getty.edu/tgn/1064240>,Montbovon,,,,,,,,,,46.486073,7.043544
<http://vocab.getty.edu/tgn/1064237>,Meyrin,,,,"""eyri""@fr",,,,,,46.228102,6.070771
<http://vocab.getty.edu/tgn/1064356>,Saint-Blaise,,,,,,,,,,47.013233,6.984722
<http://vocab.getty.edu/tgn/1064348>,Saanen,,,,,,,,,,46.489557,7.259609
<http://vocab.getty.edu/tgn/1064318>,Regensdorf,,,,,,,,,,47.429855,8.465128
<http://vocab.getty.edu/tgn/1064217>,Mürren,,,,,,,,,,46.559437,7.892812
<http://vocab.getty.edu/tgn/1064320>,Reichenbach,,,,,,,,,,46.625415,7.693621
<http://vocab.getty.edu/tgn/1064241>,Montfaucon,,,,,,,,,,47.282119,7.05123
<http://vocab.getty.edu/tgn/1064295>,Pfaffnau,,,,,,,,,,47.227718,7.897186
<http://vocab.getty.edu/tgn/1064209>,Männedorf,,,,,,,,,,47.252851,8.690581
<http://vocab.getty.edu/tgn/1064287>,Osogna,,,"""sogn""@it",,,,,,,46.310916,8.98712
<http://vocab.getty.edu/tgn/1064219>,Magglingen,,,,,,,,,,47.140612,7.215794
<http://vocab.getty.edu/tgn/1064369>,San Carlo,,,"""an Carl""@it",,,,,,,46.409634,8.527657
<http://vocab.getty.edu/tgn/1064199>,Linthal,,,,,,,,,,46.921271,8.997992
<http://vocab.getty.edu/tgn/1064278>,Oftringen,,,,,,,,,,47.31382,7.925327
<http://vocab.getty.edu/tgn/1064188>,Les Diablerets,,,,"""es Diableret""@fr",,,,,,46.351215,7.161667
<http://vocab.getty.edu/tgn/1064305>,Posieux,,,,,,,,,,46.7667,7.1
<http://vocab.getty.edu/tgn/1064213>,Münchenstein,,,,,,,,,,47.510513,7.617668
<http://vocab.getty.edu/tgn/1064311>,Röthenbach,,,,,,,,,,46.854249,7.742508
<http://vocab.getty.edu/tgn/1064271>,Oberengstringen,,,,,,,,,,47.410151,8.460978
<http://vocab.getty.edu/tgn/1064347>,Sörenberg,,,,,,,,,,46.822163,8.037376
<http://vocab.getty.edu/tgn/1064249>,Muotathal,,,,,,,,,,46.976761,8.76499
<http://vocab.getty.edu/tgn/4001157>,Balerna,,,"""alern""@it",,,,,,,45.843248,9.008222
<http://vocab.getty.edu/tgn/1064518>,Weinfelden,,"""einfelde""@de",,,,,,,,47.56571,9.10701
<http://vocab.getty.edu/tgn/1064517>,Weggis,,,,,,,,,,47.03208,8.432192
<http://vocab.getty.edu/tgn/1064414>,Sins,,,,,,,,,,47.192161,8.395779
<http://vocab.getty.edu/tgn/4001014>,Avusy,,,,"""vus""@fr",,,,,,46.151502,5.994123
<http://vocab.getty.edu/tgn/4001125>,Bagnes,,,,,,,,,,46.083333,7.216667
<http://vocab.getty.edu/tgn/1064417>,Sisikon,,,,,,,,,,46.949146,8.620026
<http://vocab.getty.edu/tgn/1065101>,Litija,,,,,,,,,,46.05,14.8167
<http://vocab.getty.edu/tgn/1064461>,Trogen,,"""roge""@de",,,,,,,,47.405413,9.460493
<http://vocab.getty.edu/tgn/1064431>,Stammheim,,,,,,,,,,47.65,8.7833
<http://vocab.getty.edu/tgn/1064533>,Wohlen,,,,,,,,,,47.352359,8.278768
<http://vocab.getty.edu/tgn/1064410>,Signau,,,,,,,,,,46.919443,7.724179
<http://vocab.getty.edu/tgn/1064399>,Seen,,,,,,,,,,47.4833,8.7667
<http://vocab.getty.edu/tgn/1064406>,Seuzach,,"""euzac""@de",,,,,,,,47.534974,8.731668
<http://vocab.getty.edu/tgn/4000971>,Aurigeno,,,"""urigen""@it",,,,,,,46.230134,8.715235
<http://vocab.getty.edu/tgn/1065214>,Rab,,,,,,,,,,44.75,14.7667
<http://vocab.getty.edu/tgn/1064514>,Wassen,,,,,,,,,,46.706507,8.59881
<http://vocab.getty.edu/tgn/1064398>,Seeberg,,,,,,,,,,47.155048,7.666646
<http://vocab.getty.edu/tgn/4000904>,Assens,,,,,,,,,,46.612594,6.622221
<http://vocab.getty.edu/tgn/1064494>,Villmergen,,,,,,,,,,47.349173,8.245828
<http://vocab.getty.edu/tgn/1064476>,Uznach,,"""znac""@de",,,,,,,,47.224209,8.982634
<http://vocab.getty.edu/tgn/1064422>,Sonceboz,,,,,,,,,,47.197769,7.182067
<http://vocab.getty.edu/tgn/4002632>,Chironico,,,"""hironic""@it",,,,,,,46.423778,8.84404
<http://vocab.getty.edu/tgn/1064534>,Wolfenschiessen,,,,,,,,,,46.903217,8.394228
<http://vocab.getty.edu/tgn/1064472>,Unterwasser,,,,,,,,,,46.5333,8.35
<http://vocab.getty.edu/tgn/1064505>,Wängi,,"""äng""@de",,,,,,,,47.49654,8.95325
<http://vocab.getty.edu/tgn/4002328>,Castel San Pietro,,,"""astel San Pietr""@it",,,,,,,45.862109,9.008431
<http://vocab.getty.edu/tgn/1064523>,Wetzikon,,"""etziko""@de",,,,,,,,47.325671,8.795716
<http://vocab.getty.edu/tgn/1092341>,Saint-Denis,,,,,,,,,,-20.8667,55.45
<http://vocab.getty.edu/tgn/1137031>,Førde,,,,,,,,,,61.45,5.85
<http://vocab.getty.edu/tgn/1065291>,Velenje,,,,,,,,,,46.3833,15.1333
<http://vocab.getty.edu/tgn/1138710>,Muri,,,,,,,,,,47.270428,8.3382
<http://vocab.getty.edu/tgn/4002765>,Col des Roches,,,,,,,,,,47.03018,6.850514
<http://vocab.getty.edu/tgn/1138709>,Kirchberg,,"""irchber""@de",,,,,,,,47.411412,9.039848
<http://vocab.getty.edu/tgn/1064451>,Thalwil,,,,,,,,,,47.289515,8.567546
<http://vocab.getty.edu/tgn/1064504>,Würenlingen,,,,,,,,,,47.533558,8.256657
<http://vocab.getty.edu/tgn/1064411>,Sigriswil,,,,,,,,,,46.716387,7.710176
<http://vocab.getty.edu/tgn/1064529>,Willisau,,,,,,,,,,47.119362,7.991459
<http://vocab.getty.edu/tgn/1065076>,Kraljevica,,,,,,,,,,45.2667,14.5667
<http://vocab.getty.edu/tgn/4002604>,Cheyres,,,,,,,,,,46.815311,6.787684
<http://vocab.getty.edu/tgn/1064528>,Wildhaus,,"""ildhau""@de",,,,,,,,47.20583,9.35402
<http://vocab.getty.edu/tgn/1064483>,Vaulruz,,,,,,,,,,46.621176,6.987267
<http://vocab.getty.edu/tgn/1064550>,Zuchwil,,,,,,,,,,47.207778,7.561126
<http://vocab.getty.edu/tgn/1064408>,Siebnen,,"""iebne""@de",,,,,,,,47.179309,8.902868
<http://vocab.getty.edu/tgn/1064549>,Zollikon,,,,,,,,,,47.338967,8.577801
<http://vocab.getty.edu/tgn/4000319>,Årstad,,,,,,,,,,58.3333,6.2833
<http://vocab.getty.edu/tgn/1137835>,Leninsk,,,,,,,,,,48.7,45.2333
<http://vocab.getty.edu/tgn/1064449>,Teufen,,"""eufe""@de",,,,,,,,47.390723,9.389564
<http://vocab.getty.edu/tgn/1064478>,Vättis,,,,,,,,,,46.908143,9.440483
<http://vocab.getty.edu/tgn/1064403>,Sennwald,,"""ennwal""@de",,,,,,,,47.260626,9.502685
<http://vocab.getty.edu/tgn/1064547>,Zofingen,,,,,,,,,,47.289945,7.947274
<http://vocab.getty.edu/tgn/1064487>,Vernier,,,,"""ernie""@fr",,,,,,46.215302,6.084552
<http://vocab.getty.edu/tgn/1064485>,Vergeletto,,,"""ergelett""@it",,,,,,,46.227483,8.600257
<http://vocab.getty.edu/tgn/1064464>,Turbenthal,,"""urbentha""@de",,,,,,,,47.438101,8.846442
<http://vocab.getty.edu/tgn/1064516>,Wattwil,,"""attwi""@de",,,,,,,,47.299553,9.08657
<http://vocab.getty.edu/tgn/1064477>,Vésenaz,,,,"""ésena""@fr",,,,,,46.242185,6.203142
<http://vocab.getty.edu/tgn/1064407>,Sevelen,,"""evele""@de",,,,,,,,47.121992,9.486926
<http://vocab.getty.edu/tgn/4002068>,Cademario,,,"""ademari""@it",,,,,,,46.020408,8.897649
<http://vocab.getty.edu/tgn/1064527>,Wildegg,,,,,,,,,,47.383333,8.166667
<http://vocab.getty.edu/tgn/1064473>,Urnäsch,,"""rnäsc""@de",,,,,,,,47.316694,9.279504
<http://vocab.getty.edu/tgn/1064423>,Sonogno,,,"""onogn""@it",,,,,,,46.350402,8.785141
<http://vocab.getty.edu/tgn/1064541>,Zell,,,,,,,,,,47.136727,7.924948
<http://vocab.getty.edu/tgn/1064520>,Weisstannen,,,,,,,,,,46.989247,9.3436
<http://vocab.getty.edu/tgn/1138708>,Buchs,,,,,,,,,,47.387774,8.073525
<http://vocab.getty.edu/tgn/4001498>,Biberist,,,,,,,,,,47.185591,7.56005
<http://vocab.getty.edu/tgn/1064433>,Stansstad,,,,,,,,,,46.97731,8.34005
<http://vocab.getty.edu/tgn/1064436>,Steg,,"""te""@de",,,,,,,,47.353925,8.932545
<http://vocab.getty.edu/tgn/4000582>,Alt Sankt Johann,,"""lt Sankt Johan""@de",,,,,,,,47.193101,9.281265
<http://vocab.getty.edu/tgn/1064510>,Wallisellen,,,,,,,,,,47.418328,8.589816
<http://vocab.getty.edu/tgn/1064400>,Seengen,,,,,,,,,,47.328515,8.205091
<http://vocab.getty.edu/tgn/4001779>,Brè,,,"""r""@it",,,,,,,46.011989,8.997919
<http://vocab.getty.edu/tgn/4001039>,Böttstein,,,,,,,,,,47.553986,8.220009
<http://vocab.getty.edu/tgn/1064439>,Suhr,,,,,,,,,,47.371725,8.079669
<http://vocab.getty.edu/tgn/1064507>,Waldenburg,,,,,,,,,,47.382068,7.74636
<http://vocab.getty.edu/tgn/1138707>,Bürglen,,"""ürgle""@de",,,,,,,,47.549209,9.149502
<http://vocab.getty.edu/tgn/4000975>,Ausserbinn,,"""usserbin""@de",,,,,,,,46.382807,8.147294
<http://vocab.getty.edu/tgn/1064506>,Wald,,"""al""@de",,,,,,,,47.27667,8.91535
<http://vocab.getty.edu/tgn/1064458>,Trasadingen,,,,,,,,,,47.668267,8.430873
<http://vocab.getty.edu/tgn/1064429>,Stöckalp,,,,,,,,,,46.8,8.2833
<http://vocab.getty.edu/tgn/1064508>,Waldstatt,,"""aldstat""@de",,,,,,,,47.357704,9.286044
<http://vocab.getty.edu/tgn/1064503>,Wädenswil,,,,,,,,,,47.228726,8.670585
<http://vocab.getty.edu/tgn/1064496>,Vira,,,"""ir""@it",,,,,,,46.097531,8.922114
<http://vocab.getty.edu/tgn/4001947>,Bubikon,,"""ubiko""@de",,,,,,,,47.270448,8.820701
<http://vocab.getty.edu/tgn/1064416>,Sirnach,,"""irnac""@de",,,,,,,,47.46359,8.99507
<http://vocab.getty.edu/tgn/1064428>,Stäfa,,,,,,,,,,47.24439,8.72112
<http://vocab.getty.edu/tgn/4000844>,Arnsburg,,,,,,,,,,50.5,8.8
<http://vocab.getty.edu/tgn/1064404>,Seon,,,,,,,,,,47.3449,8.156071
<http://vocab.getty.edu/tgn/1065293>,Tržič,,,,,,,,,,46.3667,14.3
<http://vocab.getty.edu/tgn/1064952>,Brijuni,,,,,,,,,,44.9167,13.7667
<http://vocab.getty.edu/tgn/1138711>,Reinach,,,,,,,,,,47.5,7.6
<http://vocab.getty.edu/tgn/1064471>,Unterterzen,,"""nterterze""@de",,,,,,,,47.113081,9.251864
<http://vocab.getty.edu/tgn/1064469>,Unterschächen,,,,,,,,,,46.86281,8.769234
<http://vocab.getty.edu/tgn/1064512>,Wangs,,,,,,,,,,47.032607,9.434059
<http://vocab.getty.edu/tgn/1064479>,Valangin,,,,,,,,,,47.02045,6.90632
<http://vocab.getty.edu/tgn/4001725>,Bottens,,,,,,,,,,46.617106,6.660454
<http://vocab.getty.edu/tgn/4001164>,Ballaigues,,,,,,,,,,46.730553,6.41556
<http://vocab.getty.edu/tgn/1064452>,Thayngen,,"""haynge""@de",,,,,,,,47.74829,8.70555
<http://vocab.getty.edu/tgn/4011965>,Vuadens,,,,,,,,,,46.617312,7.020524
<http://vocab.getty.edu/tgn/4004971>,Hermance,,,,,,,,,,46.302113,6.243776
<http://vocab.getty.edu/tgn/4003210>,Degersheim,,"""egershei""@de",,,,,,,,47.372382,9.200251
<http://vocab.getty.edu/tgn/4007243>,Minusio,,,"""inusi""@it",,,,,,,46.178431,8.821802
<http://vocab.getty.edu/tgn/4002899>,Cornol,,,,,,,,,,47.407518,7.162472
<http://vocab.getty.edu/tgn/4010135>,Satigny,,,,"""atign""@fr",,,,,,46.214239,6.035026
<http://vocab.getty.edu/tgn/4011124>,Thônex,,,,,,,,,,46.188186,6.196893
<http://vocab.getty.edu/tgn/4007714>,Navegna,,,,,,,,,,46.2,8.8
<http://vocab.getty.edu/tgn/4010601>,Sonvilier,,,,,,,,,,47.138621,6.963506
<http://vocab.getty.edu/tgn/4009545>,Sézegnin,,,,"""ézegni""@fr",,,,,,46.144848,6.00672
<http://vocab.getty.edu/tgn/4005470>,Jussy,,,,"""uss""@fr",,,,,,46.237182,6.270648
<http://vocab.getty.edu/tgn/4003353>,Doppleschwand,,,,,,,,,,47.01831,8.05501
<http://vocab.getty.edu/tgn/4009854>,Salou,,,,,,,,,,41.066667,1.133333
<http://vocab.getty.edu/tgn/4007596>,Much Hadham,"""uch Hadha""@en",,,,,,,,,51.85,0.083333
<http://vocab.getty.edu/tgn/4004511>,Grangettes,,,,"""rangette""@fr",,,,,,46.358155,7.11049
<http://vocab.getty.edu/tgn/4005526>,Kaiseraugst,,,,,,,,,,47.541076,7.741085
<http://vocab.getty.edu/tgn/4002911>,Corsier,,,,"""orsie""@fr",,,,,,46.263956,6.221643
<http://vocab.getty.edu/tgn/4003827>,Fanzolo,,,,,,,,,,45.716667,11.983333
<http://vocab.getty.edu/tgn/4007735>,Negrentino,,,"""egrentin""@it",,,,,,,46.464989,8.922744
<http://vocab.getty.edu/tgn/4004468>,Gränichen,,,,,,,,,,47.359297,8.10243
<http://vocab.getty.edu/tgn/4005703>,Kinderdijk,,,,,,,,,,51.883333,4.633333
<http://vocab.getty.edu/tgn/4008082>,Oberdorf,,,,,,,,,,47.393077,7.751224
<http://vocab.getty.edu/tgn/4007090>,Mellingen,,,,,,,,,,47.417707,8.270511
<http://vocab.getty.edu/tgn/4008855>,Portmeirion,,,,,,,,,,52.9,-4.1
<http://vocab.getty.edu/tgn/4004433>,Gorgier,,,,,,,,,,46.903151,6.779904
<http://vocab.getty.edu/tgn/4006714>,Mönchaltorf,,"""önchaltor""@de",,,,,,,,47.31047,8.72112
<http://vocab.getty.edu/tgn/4012118>,Weisslingen,,"""eisslinge""@de",,,,,,,,47.430886,8.764946
<http://vocab.getty.edu/tgn/4006591>,Lotzwil,,,,,,,,,,47.190562,7.787109
<http://vocab.getty.edu/tgn/4011543>,Uttwil,,"""ttwi""@de",,,,,,,,47.584399,9.341006
<http://vocab.getty.edu/tgn/4011549>,Niederuzwil,,"""iederuzwi""@de",,,,,,,,47.443596,9.14295
<http://vocab.getty.edu/tgn/4012137>,Wenslingen,,,,,,,,,,47.4333,8.7667
<http://vocab.getty.edu/tgn/4008834>,Porsel,,,,,,,,,,46.600833,6.867139
<http://vocab.getty.edu/tgn/4007152>,Mettmenstetten,,,,,,,,,,47.244008,8.464401
<http://vocab.getty.edu/tgn/4006514>,Loco,,,"""oc""@it",,,,,,,46.202224,8.672911
<http://vocab.getty.edu/tgn/4003963>,Fokís,"""hoci""@en",,,,,,,,,38.5,22.25
<http://vocab.getty.edu/tgn/4003538>,Egg,,,,,,,,,,47.300555,8.687429
<http://vocab.getty.edu/tgn/4004295>,Genthod,,,,"""entho""@fr",,,,,,46.265077,6.155367
<http://vocab.getty.edu/tgn/4011024>,Taplow,,,,,,,,,,51.516667,-0.683333
<http://vocab.getty.edu/tgn/4006381>,Ligornetto,,,"""igornett""@it",,,,,,,45.861611,8.951657
<http://vocab.getty.edu/tgn/4002771>,Coldrerio,,,"""oldreri""@it",,,,,,,45.855242,8.988703
<http://vocab.getty.edu/tgn/4008092>,Oberlunkhofen,,,,,,,,,,47.311498,8.391422
<http://vocab.getty.edu/tgn/4008096>,Oberneunforn,,"""berneunfor""@de",,,,,,,,47.607088,8.767137
<http://vocab.getty.edu/tgn/4004506>,Le Grand-Saconnex,,,,,,,,,,46.231885,6.120909
<http://vocab.getty.edu/tgn/4010276>,Seedorf,,,,,,,,,,47.034453,7.312488
<http://vocab.getty.edu/tgn/4004218>,Gambarogno,,,,,,,,,,46.6,8.46
<http://vocab.getty.edu/tgn/4003185>,Davos-Platz,,,,,,,,,,46.7833,9.8333
<http://vocab.getty.edu/tgn/4006564>,Loosdrecht,,,,,,,,,,52.216667,5.066667
<http://vocab.getty.edu/tgn/4011084>,Tenero,,,"""ener""@it",,,,,,,46.175173,8.850357
<http://vocab.getty.edu/tgn/4005895>,Kyburg,,"""ybur""@de",,,,,,,,47.457724,8.7446
<http://vocab.getty.edu/tgn/4011172>,Thunstetten,,,,,,,,,,47.2,7.583333
<http://vocab.getty.edu/tgn/4010817>,Stonegrave,"""tonegrav""@en",,,,,,,,,54.183333,-0.983333
<http://vocab.getty.edu/tgn/4009401>,Romoos,,,,,,,,,,47.0167,8.05
<http://vocab.getty.edu/tgn/4005033>,Hilterfingen,,,,,,,,,,46.73689,7.660964
<http://vocab.getty.edu/tgn/4009110>,Rapperswil,,,,,,,,,,47.063057,7.407394
<http://vocab.getty.edu/tgn/4003352>,Doorwerth,,,,,,,,,,51.983333,5.8
<http://vocab.getty.edu/tgn/4007021>,Maur,,,,,,,,,,47.339262,8.671352
<http://vocab.getty.edu/tgn/4002912>,Cortaillod,,,,,,,,,,46.943326,6.844906
<http://vocab.getty.edu/tgn/4004577>,Greppen,,,,,,,,,,47.055136,8.430341
<http://vocab.getty.edu/tgn/4002852>,Confignon,,,,"""onfigno""@fr",,,,,,46.17789,6.090515
<http://vocab.getty.edu/tgn/4004918>,Hejnice,,,,,,,,,,50.056,16.399
<http://vocab.getty.edu/tgn/4007124>,Meride,,,"""erid""@it",,,,,,,45.890461,8.952934
<http://vocab.getty.edu/tgn/4004999>,Hettlingen,,"""ettlinge""@de",,,,,,,,47.54691,8.70693
<http://vocab.getty.edu/tgn/4004065>,Frauenkirch,,,,,,,,,,46.76963,9.786416
<http://vocab.getty.edu/tgn/4003922>,Fischingen,,"""ischinge""@de",,,,,,,,47.41422,8.96862
<http://vocab.getty.edu/tgn/4003018>,Crémines,,,,,,,,,,47.283286,7.440323
<http://vocab.getty.edu/tgn/4004870>,Hauterive,,,,,,,,,,46.764351,7.117518
<http://vocab.getty.edu/tgn/4006008>,La Tour-de-Trême,,,,,,,,,,46.610614,7.064959
<http://vocab.getty.edu/tgn/4006711>,Môtiers,,,,,,,,,,46.9167,-6.6167
<http://vocab.getty.edu/tgn/4005908>,Léchelles,,,,,,,,,,46.829478,7.017497
<http://vocab.getty.edu/tgn/4010279>,Seelisberg,,,,,,,,,,46.973025,8.586886
<http://vocab.getty.edu/tgn/4003140>,Dallenwil,,,,,,,,,,46.924197,8.387852
<http://vocab.getty.edu/tgn/4006586>,Losone,,,"""oson""@it",,,,,,,46.168856,8.761621
<http://vocab.getty.edu/tgn/4003745>,Ettiswill,,,,,,,,,,47.15,8.0167
<http://vocab.getty.edu/tgn/4011378>,Troinex,,,,"""roine""@fr",,,,,,46.16415,6.145835
<http://vocab.getty.edu/tgn/4009225>,Rheinau,,,,,,,,,,47.642302,8.600908
<http://vocab.getty.edu/tgn/4010978>,Tänikon,,"""äniko""@de",,,,,,,,47.47899,8.90672
<http://vocab.getty.edu/tgn/4012014>,"Wallonne, Région","""alloni""@en",,,,,,,,,50.5,4.75
<http://vocab.getty.edu/tgn/4005182>,Huis ter Heide,,,,,,,,,,52.116667,5.266667
<http://vocab.getty.edu/tgn/4010629>,Sottoceneri,,,,,,,,,,45.979,8.958
<http://vocab.getty.edu/tgn/4003162>,Dardagny,,,,"""ardagn""@fr",,,,,,46.193523,5.99574
<http://vocab.getty.edu/tgn/4010658>,Southsea,"""outhse""@en",,,,,,,,,50.783333,-1.066667
<http://vocab.getty.edu/tgn/4003863>,Feldbrunnen,,,,,,,,,,47.215485,7.54678
<http://vocab.getty.edu/tgn/4003465>,Duszniki Zdroj,,,,,,,,,,50.4,16.4
<http://vocab.getty.edu/tgn/7012216>,Bretagne,"""rittan""@en",,,,,,,,,48.166,-2.833
<http://vocab.getty.edu/tgn/7017309>,Istarska Županija,,,,,,,,,,45.25,13.931
<http://vocab.getty.edu/tgn/7017618>,Yekaterinburg,,,,,,,,,,56.8667,60.5833
<http://vocab.getty.edu/tgn/7012268>,Tbilisi,,,,,,,,,,41.694113,44.833682
<http://vocab.getty.edu/tgn/7013225>,Bad Lauchstädt,,,,,,,,,,51.383333,11.85
<http://vocab.getty.edu/tgn/7012031>,Northamptonshire,"""orthamptonshir""@en",,,,,,,,,52.315972,-0.848108
<http://vocab.getty.edu/tgn/7016622>,Canarias,"""anary Island""@en",,,,,,,,,28,-15.5
<http://vocab.getty.edu/tgn/7012005>,Norwich,"""orwic""@en-gb",,,,,,,,,52.633333,1.3
<http://vocab.getty.edu/tgn/7017589>,Unterlunkhofen,,,,,,,,,,47.32242,8.381599
<http://vocab.getty.edu/tgn/7013310>,Oświe̜cim,,,,,,,,,,50.0333,19.2333
<http://vocab.getty.edu/tgn/7012946>,Nassau,,,,,,,,,,50.316667,7.8
<http://vocab.getty.edu/tgn/7017421>,Windisch,,,,,,,,,,47.476756,8.220846
<http://vocab.getty.edu/tgn/7015546>,Split,,,"""palat""@it",,,,,,,43.5167,16.4667
<http://vocab.getty.edu/tgn/7012458>,Frankenthal,,,,,,,,,,49.537222,8.355
<http://vocab.getty.edu/tgn/7012032>,Somerset,"""omerse""@en",,,,,,,,,51.083333,-3
<http://vocab.getty.edu/tgn/7017076>,Pelopónnisos,"""eloponnes""@en",,,,,,,,,37.5,22
<http://vocab.getty.edu/tgn/7011969>,Kingston upon Thames,"""ingston upon Thame""@en",,,,,,,,,51.4167,-0.3
<http://vocab.getty.edu/tgn/7014820>,Minsk,,,,,,,,,,53.85,27.5
<http://vocab.getty.edu/tgn/7012056>,Kríti,"""ret""@en",,,,,,,,,35.1667,25
<http://vocab.getty.edu/tgn/7012348>,Wels,,,,,,,,,,48.1667,14.0333
<http://vocab.getty.edu/tgn/7015657>,Crna Gora,"""ontenegr""@en",,,"""onténégr""@fr",,,"""ерногори""@ru","""ontenegr""@es",,42.5,19.3333
<http://vocab.getty.edu/tgn/7012040>,Kalambáka,,,,,,,,,"""alambák""@el-latn",39.704444,21.626944
<http://vocab.getty.edu/tgn/7012026>,Newcastle upon Tyne,"""ewcastle upon Tyn""@en",,,,,,,,,54.988056,-1.619444
<http://vocab.getty.edu/tgn/7017586>,Augusta Rauricorum,,,,,,,,,,42.533,7.721
<http://vocab.getty.edu/tgn/7016845>,Nederland,"""etherland""@en","""iederland""@de","""aesi Bass""@it","""ays-Ba""@fr",,,"""идерланд""@ru","""aíses Bajo""@es",,52.5,5.75
<http://vocab.getty.edu/tgn/7012380>,Badenweiler,,,,,,,,,,47.8,7.683333
<http://vocab.getty.edu/tgn/7015144>,Tržič,,,,,,,,,,46.384167,14.323611
<http://vocab.getty.edu/tgn/7015596>,Cagliari,,,,,,,,,,39.216667,9.116667
<http://vocab.getty.edu/tgn/7012055>,Chalándri,,,,,,,,,,38.033333,23.8
<http://vocab.getty.edu/tgn/7014786>,Qazaqstan,"""azakhsta""@en",,,"""azakhsta""@fr",,,"""azahsta""@ru-latn","""azajstá""@es",,48,68
<http://vocab.getty.edu/tgn/7014786>,Qazaqstan,"""azakhsta""@en",,,"""azakhsta""@fr",,,"""азахста""@ru","""azajstá""@es",,48,68
<http://vocab.getty.edu/tgn/7015109>,Litija,,,,,,,,,,46.074,14.907
<http://vocab.getty.edu/tgn/7016632>,Boulogne-sur-Mer,"""oulogn""@en","""oulogn""@de",,"""oulogne-sur-Me""@fr",,,,,,50.720702,1.604562
<http://vocab.getty.edu/tgn/7017296>,Varaždinska Županija,,,,,,,,,,46.25,16.338
<http://vocab.getty.edu/tgn/7012352>,Zweibrücken,,,,,,,,,,49.25,7.366667
<http://vocab.getty.edu/tgn/7013222>,Sölden,,,,,,,,,,46.9667,11
<http://vocab.getty.edu/tgn/7015331>,Opatija,,,,,,,,,,45.3333,14.3
<http://vocab.getty.edu/tgn/7012955>,Kaiserslautern,,,,,,,,,,49.45,7.75
<http://vocab.getty.edu/tgn/7017308>,Splitsko-Dalmatinska Županija,,,,,,,,,,43.166,16.508
<http://vocab.getty.edu/tgn/7012740>,Trechtingshausen,,"""rechtingshause""@de",,,,,,,,50.016667,7.85
<http://vocab.getty.edu/tgn/7015534>,Albano Laziale,,,,,,,,,,41.733333,12.65
<http://vocab.getty.edu/tgn/7012974>,Moskva,"""osco""@en",,,,,,"""осква""@ru",,,55.75,37.7
<http://vocab.getty.edu/tgn/7013212>,Vejle,"""ejl""@en",,,,,,,,,55.7167,9.55
<http://vocab.getty.edu/tgn/7015500>,Dubrovnik,,,,,,,,,,42.6667,18.1167
<http://vocab.getty.edu/tgn/7012650>,Yerevan,"""ereva""@en",,,,,,,,,40.181,44.508
<http://vocab.getty.edu/tgn/7015163>,Sassari,,,,,,,,,,40.666667,9
<http://vocab.getty.edu/tgn/7012400>,Bitburg,,,,,,,,,,49.966667,6.533333
<http://vocab.getty.edu/tgn/7012341>,Speyer,,,,,,,,,,49.329722,8.427778
<http://vocab.getty.edu/tgn/7017383>,Skopje,,,,,,,,,,42.005,21.42889
<http://vocab.getty.edu/tgn/7017447>,Radom,,,,,,,,,,51.4333,21.1667
<http://vocab.getty.edu/tgn/7012077>,Devon,"""evo""@en",,,,,,,,,50.75,-3.75
<http://vocab.getty.edu/tgn/7017242>,Ceredigion,"""eredigio""@en",,,,,,,,,52.25,-4.25
<http://vocab.getty.edu/tgn/7012373>,Bad Nauheim,,,,,,,,,,50.366667,8.75
<http://vocab.getty.edu/tgn/7017032>,Département des Hauts-de-Seine,"""épartement des Hauts-de-Sein""@en",,,,,,,,,48.85,2.2
<http://vocab.getty.edu/tgn/7012371>,Bad Kreuznach,"""ad Kreuznac""@en",,,,,,,,,49.833333,7.866667
<http://vocab.getty.edu/tgn/7012940>,Bad Säckingen,,,,,,,,,,47.55,7.95
<http://vocab.getty.edu/tgn/7012257>,Groznyy,,,,,,,,,,43.35,45.7
<http://vocab.getty.edu/tgn/7015484>,Hvar,,,,,,,,,,43.1833,16.4667
<http://vocab.getty.edu/tgn/7012790>,Altenburg,,,,,,,,,,50.983333,12.45
<http://vocab.getty.edu/tgn/7012016>,Tiverton,"""iverto""@en",,,,,,,,,50.9,-3.483333
<http://vocab.getty.edu/tgn/7012050>,Mikínai,"""ycena""@en",,,,,,,,,37.75,22.7333
<http://vocab.getty.edu/tgn/7015558>,Zagreb,,,,,,,,,,45.8,15.9667
<http://vocab.getty.edu/tgn/7017591>,Ebikon,,,,,,,,,,47.079366,8.340411
<http://vocab.getty.edu/tgn/7017232>,Chambord,,,,,,,,,,47.6162,1.516667
<http://vocab.getty.edu/tgn/7012586>,Ludwigshafen,,,,,,,,,,49.481111,8.435278
<http://vocab.getty.edu/tgn/7015643>,Skopje,,,,,,,,,,42,21.4667
<http://vocab.getty.edu/tgn/7012376>,Bad Segeberg,,,,,,,,,,53.933333,10.316667
<http://vocab.getty.edu/tgn/7016816>,Beograd,"""elgrad""@en",,,,,,,,,44.8333,20.5
<http://vocab.getty.edu/tgn/7012596>,Mayen,,,,,,,,,,50.333333,7.216667
<http://vocab.getty.edu/tgn/7017243>,Bangor,"""ango""@en",,,,,,,,,53.266667,-4.116667
<http://vocab.getty.edu/tgn/7012799>,Bad Schandau,,,,,,,,,,50.916667,14.15
<http://vocab.getty.edu/tgn/7012442>,Engelberg,,,,,,,,,,46.821069,8.401333
<http://vocab.getty.edu/tgn/7012368>,Bad Homburg,,"""ad Hombur""@de",,,,,,,,50.216667,8.616667
<http://vocab.getty.edu/tgn/7012044>,Canterbury,,,,,,,,,,51.266667,1.083333
<http://vocab.getty.edu/tgn/7013050>,Kaliningrad,,,,,,,,,,54.6667,20.5
<http://vocab.getty.edu/tgn/7015145>,Velenje,,,,,,,,,,46.366667,15.133333
<http://vocab.getty.edu/tgn/7012290>,Samarqand,"""amarkan""@en",,,,,,,,,39.654,66.959
<http://vocab.getty.edu/tgn/7012717>,Speicher,,"""peiche""@de",,,,,,,,47.41084,9.443814
<http://vocab.getty.edu/tgn/7017588>,Prugiasco,,,"""rugiasc""@it",,,,,,,46.461648,8.932619
<http://vocab.getty.edu/tgn/7012405>,Richmond,"""ichmon""@en",,,,,,,,,54.4,-1.733333
<http://vocab.getty.edu/tgn/7012986>,Ljubljana,,,,,,,,,,46.0667,14.5
<http://vocab.getty.edu/tgn/7012006>,Nottingham,"""ottingha""@en",,,,,,,,,52.966667,-1.166667
<http://vocab.getty.edu/tgn/7017187>,Asnières-sur-Oise,,,,,,,,,,49.133692,2.355512
<http://vocab.getty.edu/tgn/7017225>,Carnac,,,,,,,,,,47.58351,-3.078837
<http://vocab.getty.edu/tgn/7011931>,Oxford,"""xfor""@en",,,,,,,,,51.75,-1.25
<http://vocab.getty.edu/tgn/7012051>,Hradec Králové,"""radec Králov""@en","""öniggrät""@de",,,,,,,,50.2167,15.8333
<http://vocab.getty.edu/tgn/7014883>,Krasnoyarsk,,,,,,,,,,56.0833,92.7667
<http://vocab.getty.edu/tgn/7017283>,Glasgow,"""lasgo""@en",,,,,,,,,55.833333,-4.25
<http://vocab.getty.edu/tgn/7012377>,Homburg,,,,,,,,,,49.316667,7.333333
<http://vocab.getty.edu/tgn/7013232>,Bensheim,,,,,,,,,,49.680278,8.616111
<http://vocab.getty.edu/tgn/7017310>,Dubrovačko-Neretvanska Županija,,,,,,,,,,42.833,17.508
<http://vocab.getty.edu/tgn/7012639>,Oppenheim,,,,,,,,,,49.858056,8.367778
<http://vocab.getty.edu/tgn/7017312>,"Zagreb, Grad",,,,,,,,,,45.833,16
<http://vocab.getty.edu/tgn/7017299>,Primorsko-Goranska Županjia,,,,,,,,,,45.003,14.576
<http://vocab.getty.edu/tgn/7017587>,Mosogno,,,"""osogn""@it",,,,,,,46.198767,8.641587
<http://vocab.getty.edu/tgn/7011980>,Cambridgeshire,"""ambridgeshir""@en",,,,,,,,,52.5,0.1667
<http://vocab.getty.edu/tgn/7012842>,Bad Muskau,,,,,,,,,,51.55,14.716667
<http://vocab.getty.edu/tgn/7012305>,Bautzen,,,,,,,,,,51.183333,14.433333
<http://vocab.getty.edu/tgn/8699654>,Champex d'en Haut,,,,"""hampex d'en Hau""@fr",,,,,,46.035785,7.098765
<http://vocab.getty.edu/tgn/8699772>,Barlei,,"""arle""@de",,,,,,,,46.225021,7.844149
<http://vocab.getty.edu/tgn/8699336>,Dasciun,,,,,,,,,,46.341148,9.516723
<http://vocab.getty.edu/tgn/8699798>,La Prâlay,,,,"""a Prâla""@fr",,,,,,46.257881,6.126284
<http://vocab.getty.edu/tgn/8699503>,Boi de Bay,,,,"""oi de Ba""@fr",,,,,,46.197579,6.061679
<http://vocab.getty.edu/tgn/8699988>,Le Petit Miolan,,,,"""e Petit Miola""@fr",,,,,,46.226141,6.21632
